{
    "11001": {
        "area": "宗谷",
        "id": 11001,
        "type": "四",
        "name": "宗谷岬",
        "katakana": "ｿｳﾔﾐｻｷ",
        "name_info": "稚内市宗谷岬",
        "address": "稚内市宗谷岬",
        "lat": 45.52,
        "lon": 141.935,
        "alt": 26,
        "alt_wind": "10.1",
        "alt_temp": "1.5",
        "start": "昭53.10.30",
        "comment1": "−",
        "comment2": "−"
    },
    "11016": {
        "area": "宗谷",
        "id": 11016,
        "type": "官",
        "name": "稚内",
        "katakana": "ﾜｯｶﾅｲ",
        "name_info": "稚内市開運",
        "address": "稚内市開運　稚内地方気象台",
        "lat": 45.415,
        "lon": 141.67833333333334,
        "alt": 3,
        "alt_wind": "24.1",
        "alt_temp": "−",
        "start": "#昭50.4.1",
        "comment1": "11903",
        "comment2": "−"
    },
    "11046": {
        "area": "宗谷",
        "id": 11046,
        "type": "四",
        "name": "礼文",
        "katakana": "ﾚﾌﾞﾝ",
        "name_info": "礼文町香深",
        "address": "礼文郡礼文町大字香深村トンナイ",
        "lat": 45.305,
        "lon": 141.045,
        "alt": 65,
        "alt_wind": "9.9",
        "alt_temp": "1.5",
        "start": "平15.10.17",
        "comment1": "−",
        "comment2": "−"
    },
    "11061": {
        "area": "宗谷",
        "id": 11061,
        "type": "官",
        "name": "声問",
        "katakana": "ｺｴﾄｲ",
        "name_info": "稚内空港",
        "address": "稚内市大字声問村字声問　稚内航空気象観測所",
        "lat": 45.403333333333336,
        "lon": 141.80166666666668,
        "alt": 8,
        "alt_wind": "10",
        "alt_temp": "−",
        "start": "平15.1.1",
        "comment1": "11904",
        "comment2": "日照・湿度・気圧を除く"
    },
    "11076": {
        "area": "宗谷",
        "id": 11076,
        "type": "四",
        "name": "浜鬼志別",
        "katakana": "ﾊﾏｵﾆｼﾍﾞﾂ",
        "name_info": "猿払村浜鬼志別",
        "address": "宗谷郡猿払村浜鬼志別",
        "lat": 45.335,
        "lon": 142.17,
        "alt": 13,
        "alt_wind": "9.9",
        "alt_temp": "1.5",
        "start": "昭53.10.30",
        "comment1": "11900",
        "comment2": "−"
    },
    "11091": {
        "area": "宗谷",
        "id": 11091,
        "type": "官",
        "name": "本泊",
        "katakana": "ﾓﾄﾄﾞﾏﾘ",
        "name_info": "利尻空港",
        "address": "利尻郡利尻富士町鴛泊字本泊　利尻航空気象観測所",
        "lat": 45.24166666666667,
        "lon": 141.18666666666667,
        "alt": 30,
        "alt_wind": "10",
        "alt_temp": "−",
        "start": "平15.1.1",
        "comment1": "−",
        "comment2": "日照・湿度・気圧を除く"
    },
    "11121": {
        "area": "宗谷",
        "id": 11121,
        "type": "四",
        "name": "沼川",
        "katakana": "ﾇﾏｶﾜ",
        "name_info": "稚内市沼川",
        "address": "稚内市声問村沼川",
        "lat": 45.248333333333335,
        "lon": 141.85166666666666,
        "alt": 23,
        "alt_wind": "10",
        "alt_temp": "1.5",
        "start": "昭52.10.20",
        "comment1": "11905",
        "comment2": "湿度を除く"
    },
    "11151": {
        "area": "宗谷",
        "id": 11151,
        "type": "四",
        "name": "沓形",
        "katakana": "ｸﾂｶﾞﾀ",
        "name_info": "利尻町沓形",
        "address": "利尻郡利尻町沓形泉町",
        "lat": 45.178333333333335,
        "lon": 141.13833333333332,
        "alt": 14,
        "alt_wind": "9.9",
        "alt_temp": "1.5",
        "start": "#昭52.10.24",
        "comment1": "−",
        "comment2": "−"
    },
    "11176": {
        "area": "宗谷",
        "id": 11176,
        "type": "四",
        "name": "豊富",
        "katakana": "ﾄﾖﾄﾐ",
        "name_info": "豊富",
        "address": "天塩郡豊富町豊富東2条",
        "lat": 45.10166666666667,
        "lon": 141.78,
        "alt": 14,
        "alt_wind": "10",
        "alt_temp": "1.5",
        "start": "(昭50.5.29)昭52.10.25",
        "comment1": "11910",
        "comment2": "湿度を除く"
    },
    "11206": {
        "area": "宗谷",
        "id": 11206,
        "type": "四",
        "name": "浜頓別",
        "katakana": "ﾊﾏﾄﾝﾍﾞﾂ",
        "name_info": "浜頓別",
        "address": "枝幸郡浜頓別町クッチャロ湖畔",
        "lat": 45.125,
        "lon": 142.35,
        "alt": 18,
        "alt_wind": "10",
        "alt_temp": "2.5",
        "start": "#昭52.10.19",
        "comment1": "−",
        "comment2": "湿度を除く"
    },
    "11276": {
        "area": "宗谷",
        "id": 11276,
        "type": "四",
        "name": "中頓別",
        "katakana": "ﾅｶﾄﾝﾍﾞﾂ",
        "name_info": "中頓別",
        "address": "枝幸郡中頓別町上駒",
        "lat": 44.965,
        "lon": 142.28,
        "alt": 25,
        "alt_wind": "10.2",
        "alt_temp": "1.5",
        "start": "(昭50.5.28)昭52.10.19",
        "comment1": "11915",
        "comment2": "湿度を除く"
    },
    "11291": {
        "area": "宗谷",
        "id": 11291,
        "type": "官",
        "name": "北見枝幸",
        "katakana": "ｷﾀﾐｴｻｼ",
        "name_info": "枝幸町枝幸",
        "address": "枝幸郡枝幸町本町　北見枝幸特別地域気象観測所",
        "lat": 44.94,
        "lon": 142.585,
        "alt": 7,
        "alt_wind": "17.2",
        "alt_temp": "−",
        "start": "#昭51.1.1",
        "comment1": "11917",
        "comment2": "−"
    },
    "11316": {
        "area": "宗谷",
        "id": 11316,
        "type": "四",
        "name": "歌登",
        "katakana": "ｳﾀﾉﾎﾞﾘ",
        "name_info": "枝幸町歌登",
        "address": "枝幸郡枝幸町歌登東町",
        "lat": 44.84166666666667,
        "lon": 142.48,
        "alt": 14,
        "alt_wind": "10",
        "alt_temp": "1.5",
        "start": "#昭52.10.25",
        "comment1": "11920",
        "comment2": "湿度を除く"
    },
    "13011": {
        "area": "宗谷",
        "id": 13011,
        "type": "雨",
        "name": "幌延",
        "katakana": "ﾎﾛﾉﾍﾞ",
        "name_info": "幌延",
        "address": "天塩郡幌延町上幌延",
        "lat": 45.00666666666667,
        "lon": 141.85166666666666,
        "alt": 5,
        "alt_wind": "−",
        "alt_temp": "−",
        "start": "平17.11.15",
        "comment1": "−",
        "comment2": "−"
    },
    "12011": {
        "area": "上川",
        "id": 12011,
        "type": "四",
        "name": "中川",
        "katakana": "ﾅｶｶﾞﾜ",
        "name_info": "中川",
        "address": "中川郡中川町中川",
        "lat": 44.82833333333333,
        "lon": 142.07666666666665,
        "alt": 22,
        "alt_wind": "10",
        "alt_temp": "1.5",
        "start": "昭52.10.19",
        "comment1": "−",
        "comment2": "湿度を除く"
    },
    "12041": {
        "area": "上川",
        "id": 12041,
        "type": "四",
        "name": "音威子府",
        "katakana": "ｵﾄｲﾈｯﾌﾟ",
        "name_info": "音威子府",
        "address": "中川郡音威子府村音威子府",
        "lat": 44.72666666666667,
        "lon": 142.265,
        "alt": 40,
        "alt_wind": "9.9",
        "alt_temp": "1.5",
        "start": "昭52.10.17",
        "comment1": "12905",
        "comment2": "−"
    },
    "12066": {
        "area": "上川",
        "id": 12066,
        "type": "雨",
        "name": "小車",
        "katakana": "ｵｸﾞﾙﾏ",
        "name_info": "美深町小車",
        "address": "中川郡美深町小車",
        "lat": 44.608333333333334,
        "lon": 142.295,
        "alt": 60,
        "alt_wind": "−",
        "alt_temp": "−",
        "start": "平17.11.9",
        "comment1": "−",
        "comment2": "−"
    },
    "12141": {
        "area": "上川",
        "id": 12141,
        "type": "四",
        "name": "美深",
        "katakana": "ﾋﾞﾌｶ",
        "name_info": "美深町西町",
        "address": "中川郡美深町西町",
        "lat": 44.48,
        "lon": 142.34166666666667,
        "alt": 77,
        "alt_wind": "10",
        "alt_temp": "1.5",
        "start": "#昭52.10.6",
        "comment1": "12900",
        "comment2": "湿度を除く"
    },
    "12181": {
        "area": "上川",
        "id": 12181,
        "type": "四",
        "name": "名寄",
        "katakana": "ﾅﾖﾛ",
        "name_info": "名寄市大橋",
        "address": "名寄市大橋",
        "lat": 44.37,
        "lon": 142.45666666666668,
        "alt": 89,
        "alt_wind": "9.9",
        "alt_temp": "1.5",
        "start": "#昭51.4.1",
        "comment1": "12910",
        "comment2": "−"
    },
    "12217": {
        "area": "上川",
        "id": 12217,
        "type": "雨",
        "name": "西風連",
        "katakana": "ﾆｼﾌｳﾚﾝ",
        "name_info": "名寄市西風連",
        "address": "名寄市風連町西風連",
        "lat": 44.295,
        "lon": 142.35833333333332,
        "alt": 128,
        "alt_wind": "−",
        "alt_temp": "−",
        "start": "平17.11.8",
        "comment1": "−",
        "comment2": "−"
    },
    "12231": {
        "area": "上川",
        "id": 12231,
        "type": "四",
        "name": "下川",
        "katakana": "ｼﾓｶﾜ",
        "name_info": "下川",
        "address": "上川郡下川町南町",
        "lat": 44.295,
        "lon": 142.63666666666666,
        "alt": 143,
        "alt_wind": "10",
        "alt_temp": "2.4",
        "start": "#昭52.10.14",
        "comment1": "12925",
        "comment2": "湿度を除く"
    },
    "12256": {
        "area": "上川",
        "id": 12256,
        "type": "雨",
        "name": "剣淵",
        "katakana": "ｹﾝﾌﾞﾁ",
        "name_info": "剣淵",
        "address": "上川郡剣淵町旭町",
        "lat": 44.10666666666667,
        "lon": 142.35333333333332,
        "alt": 138,
        "alt_wind": "−",
        "alt_temp": "−",
        "start": "平17.11.10",
        "comment1": "−",
        "comment2": "−"
    },
    "12261": {
        "area": "上川",
        "id": 12261,
        "type": "四",
        "name": "士別",
        "katakana": "ｼﾍﾞﾂ",
        "name_info": "士別市九十九東",
        "address": "士別市武徳町",
        "lat": 44.18666666666667,
        "lon": 142.41666666666666,
        "alt": 135,
        "alt_wind": "8",
        "alt_temp": "1.5",
        "start": "#昭52.10.13",
        "comment1": "−",
        "comment2": "湿度を除く"
    },
    "12266": {
        "area": "上川",
        "id": 12266,
        "type": "四",
        "name": "朝日",
        "katakana": "ｱｻﾋ",
        "name_info": "士別市朝日",
        "address": "士別市朝日町中央",
        "lat": 44.11833333333333,
        "lon": 142.595,
        "alt": 225,
        "alt_wind": "10",
        "alt_temp": "1.5",
        "start": "昭52.10.13",
        "comment1": "−",
        "comment2": "湿度を除く"
    },
    "12301": {
        "area": "上川",
        "id": 12301,
        "type": "四",
        "name": "和寒",
        "katakana": "ﾜｯｻﾑ",
        "name_info": "和寒",
        "address": "上川郡和寒町日ノ出",
        "lat": 44.028333333333336,
        "lon": 142.41,
        "alt": 150,
        "alt_wind": "10",
        "alt_temp": "1.5",
        "start": "昭52.10.12",
        "comment1": "12915",
        "comment2": "湿度を除く"
    },
    "12386": {
        "area": "上川",
        "id": 12386,
        "type": "四",
        "name": "江丹別",
        "katakana": "ｴﾀﾝﾍﾞﾂ",
        "name_info": "旭川市江丹別",
        "address": "旭川市江丹別町芳野",
        "lat": 43.87,
        "lon": 142.26,
        "alt": 140,
        "alt_wind": "10",
        "alt_temp": "3.2",
        "start": "昭52.10.11",
        "comment1": "−",
        "comment2": "湿度を除く"
    },
    "12396": {
        "area": "上川",
        "id": 12396,
        "type": "四",
        "name": "比布",
        "katakana": "ﾋﾟｯﾌﾟ",
        "name_info": "比布",
        "address": "上川郡比布町北2線",
        "lat": 43.87,
        "lon": 142.47,
        "alt": 164,
        "alt_wind": "10",
        "alt_temp": "2.5",
        "start": "(昭50.5.27)昭52.10.11",
        "comment1": "−",
        "comment2": "湿度を除く"
    },
    "12411": {
        "area": "上川",
        "id": 12411,
        "type": "四",
        "name": "上川",
        "katakana": "ｶﾐｶﾜ",
        "name_info": "上川町栄町",
        "address": "上川郡上川町栄町",
        "lat": 43.846666666666664,
        "lon": 142.75333333333333,
        "alt": 324,
        "alt_wind": "10",
        "alt_temp": "2.4",
        "start": "#昭52.10.12",
        "comment1": "12920",
        "comment2": "湿度を除く"
    },
    "12442": {
        "area": "上川",
        "id": 12442,
        "type": "官",
        "name": "旭川",
        "katakana": "ｱｻﾋｶﾜ",
        "name_info": "旭川市宮前１条",
        "address": "旭川市宮前1条　旭川地方気象台",
        "lat": 43.75666666666667,
        "lon": 142.37166666666667,
        "alt": 120,
        "alt_wind": "47",
        "alt_temp": "−",
        "start": "平16.9.9",
        "comment1": "12927",
        "comment2": "−"
    },
    "12451": {
        "area": "上川",
        "id": 12451,
        "type": "四",
        "name": "東川",
        "katakana": "ﾋｶﾞｼｶﾜ",
        "name_info": "東川",
        "address": "上川郡東川町北町",
        "lat": 43.70166666666667,
        "lon": 142.50833333333333,
        "alt": 215,
        "alt_wind": "10",
        "alt_temp": "2.2",
        "start": "昭52.10.5",
        "comment1": "−",
        "comment2": "湿度を除く"
    },
    "12457": {
        "area": "上川",
        "id": 12457,
        "type": "雨",
        "name": "瑞穂",
        "katakana": "ﾐｽﾞﾎ",
        "name_info": "旭川市瑞穂",
        "address": "旭川市東旭川町瑞穂",
        "lat": 43.736666666666665,
        "lon": 142.63833333333332,
        "alt": 289,
        "alt_wind": "−",
        "alt_temp": "−",
        "start": "昭59.10.8",
        "comment1": "−",
        "comment2": "−"
    },
    "12471": {
        "area": "上川",
        "id": 12471,
        "type": "雨",
        "name": "層雲峡",
        "katakana": "ｿｳｳﾝｷｮｳ",
        "name_info": "上川町層雲峡",
        "address": "上川郡上川町層雲峡高山",
        "lat": 43.75333333333333,
        "lon": 142.93,
        "alt": 540,
        "alt_wind": "−",
        "alt_temp": "−",
        "start": "昭50.5.27",
        "comment1": "12930",
        "comment2": "−"
    },
    "12501": {
        "area": "上川",
        "id": 12501,
        "type": "官",
        "name": "東神楽",
        "katakana": "ﾋｶﾞｼｶｸﾞﾗ",
        "name_info": "旭川空港",
        "address": "上川郡東神楽町東2線　旭川航空気象観測所",
        "lat": 43.67,
        "lon": 142.44666666666666,
        "alt": 211,
        "alt_wind": "10",
        "alt_temp": "−",
        "start": "平15.1.1",
        "comment1": "12932",
        "comment2": "日照・湿度・気圧を除く"
    },
    "12512": {
        "area": "上川",
        "id": 12512,
        "type": "四",
        "name": "志比内",
        "katakana": "ｼﾋﾞﾅｲ",
        "name_info": "東神楽町志比内",
        "address": "上川郡東神楽町志比内",
        "lat": 43.64333333333333,
        "lon": 142.58166666666668,
        "alt": 310,
        "alt_wind": "10",
        "alt_temp": "1.5",
        "start": "平4.10.9",
        "comment1": "−",
        "comment2": "湿度を除く"
    },
    "12551": {
        "area": "上川",
        "id": 12551,
        "type": "四",
        "name": "美瑛",
        "katakana": "ﾋﾞｴｲ",
        "name_info": "美瑛町原野５線",
        "address": "上川郡美瑛町原野5線",
        "lat": 43.58833333333333,
        "lon": 142.49333333333334,
        "alt": 250,
        "alt_wind": "10",
        "alt_temp": "1.5",
        "start": "(昭50.5.28)昭52.10.6",
        "comment1": "12935",
        "comment2": "湿度を除く"
    },
    "12596": {
        "area": "上川",
        "id": 12596,
        "type": "四",
        "name": "上富良野",
        "katakana": "ｶﾐﾌﾗﾉ",
        "name_info": "上富良野",
        "address": "空知郡上富良野町大町",
        "lat": 43.455,
        "lon": 142.465,
        "alt": 220,
        "alt_wind": "10",
        "alt_temp": "2.1",
        "start": "昭52.10.8",
        "comment1": "−",
        "comment2": "湿度を除く"
    },
    "12607": {
        "area": "上川",
        "id": 12607,
        "type": "雨",
        "name": "白金",
        "katakana": "ｼﾛｶﾞﾈ",
        "name_info": "美瑛町白金",
        "address": "上川郡美瑛町白金",
        "lat": 43.475,
        "lon": 142.65,
        "alt": 658,
        "alt_wind": "−",
        "alt_temp": "−",
        "start": "昭59.10.8",
        "comment1": "−",
        "comment2": "−"
    },
    "12626": {
        "area": "上川",
        "id": 12626,
        "type": "四",
        "name": "富良野",
        "katakana": "ﾌﾗﾉ",
        "name_info": "富良野市東町",
        "address": "富良野市東町",
        "lat": 43.333333333333336,
        "lon": 142.4,
        "alt": 174,
        "alt_wind": "9.9",
        "alt_temp": "1.5",
        "start": "#昭51.4.1",
        "comment1": "12940",
        "comment2": "−"
    },
    "12632": {
        "area": "上川",
        "id": 12632,
        "type": "四",
        "name": "麓郷",
        "katakana": "ﾛｸｺﾞｳ",
        "name_info": "富良野市麓郷",
        "address": "富良野市麓郷市街地",
        "lat": 43.30166666666667,
        "lon": 142.52166666666668,
        "alt": 315,
        "alt_wind": "10",
        "alt_temp": "2.3",
        "start": "昭53.10.25",
        "comment1": "−",
        "comment2": "湿度を除く"
    },
    "12686": {
        "area": "上川",
        "id": 12686,
        "type": "雨",
        "name": "金山",
        "katakana": "ｶﾅﾔﾏ",
        "name_info": "南富良野町金山",
        "address": "空知郡南富良野町金山地先",
        "lat": 43.138333333333335,
        "lon": 142.41666666666666,
        "alt": 284,
        "alt_wind": "−",
        "alt_temp": "−",
        "start": "平17.11.17",
        "comment1": "−",
        "comment2": "−"
    },
    "12691": {
        "area": "上川",
        "id": 12691,
        "type": "四",
        "name": "幾寅",
        "katakana": "ｲｸﾄﾗ",
        "name_info": "南富良野町幾寅",
        "address": "空知郡南富良野町幾寅",
        "lat": 43.16833333333334,
        "lon": 142.56833333333333,
        "alt": 350,
        "alt_wind": "9.9",
        "alt_temp": "1.5",
        "start": "昭52.10.7",
        "comment1": "12945",
        "comment2": "−"
    },
    "12746": {
        "area": "上川",
        "id": 12746,
        "type": "四",
        "name": "占冠",
        "katakana": "ｼﾑｶｯﾌﾟ",
        "name_info": "占冠",
        "address": "勇払郡占冠村中央",
        "lat": 42.97833333333333,
        "lon": 142.395,
        "alt": 332,
        "alt_wind": "10",
        "alt_temp": "1.5",
        "start": "昭52.10.7",
        "comment1": "12950",
        "comment2": "湿度を除く"
    },
    "15041": {
        "area": "上川",
        "id": 15041,
        "type": "四",
        "name": "朱鞠内",
        "katakana": "ｼｭﾏﾘﾅｲ",
        "name_info": "幌加内町朱鞠内",
        "address": "雨竜郡幌加内町朱鞠内",
        "lat": 44.281666666666666,
        "lon": 142.16166666666666,
        "alt": 255,
        "alt_wind": "9.9",
        "alt_temp": "1.5",
        "start": "昭53.10.24",
        "comment1": "15900",
        "comment2": "−"
    },
    "15076": {
        "area": "上川",
        "id": 15076,
        "type": "四",
        "name": "幌加内",
        "katakana": "ﾎﾛｶﾅｲ",
        "name_info": "幌加内町幌加内",
        "address": "雨竜郡幌加内町幌加内",
        "lat": 44.01,
        "lon": 142.16,
        "alt": 159,
        "alt_wind": "9.4",
        "alt_temp": "1.5",
        "start": "(昭50.5.28)昭52.10.28",
        "comment1": "15905",
        "comment2": "湿度を除く"
    },
    "13061": {
        "area": "留萌",
        "id": 13061,
        "type": "四",
        "name": "天塩",
        "katakana": "ﾃｼｵ",
        "name_info": "天塩",
        "address": "天塩郡天塩町川口",
        "lat": 44.89333333333333,
        "lon": 141.76166666666666,
        "alt": 9,
        "alt_wind": "9.9",
        "alt_temp": "1.5",
        "start": "#昭52.10.26",
        "comment1": "13900",
        "comment2": "−"
    },
    "13086": {
        "area": "留萌",
        "id": 13086,
        "type": "四",
        "name": "遠別",
        "katakana": "ｴﾝﾍﾞﾂ",
        "name_info": "遠別",
        "address": "天塩郡遠別町幸和",
        "lat": 44.718333333333334,
        "lon": 141.80666666666667,
        "alt": 7,
        "alt_wind": "10",
        "alt_temp": "1.5",
        "start": "#昭52.10.26",
        "comment1": "−",
        "comment2": "湿度を除く"
    },
    "13121": {
        "area": "留萌",
        "id": 13121,
        "type": "四",
        "name": "初山別",
        "katakana": "ｼｮｻﾝﾍﾞﾂ",
        "name_info": "初山別",
        "address": "苫前郡初山別村初山別",
        "lat": 44.52333333333333,
        "lon": 141.77,
        "alt": 27,
        "alt_wind": "9.9",
        "alt_temp": "1.5",
        "start": "昭52.10.28",
        "comment1": "13905",
        "comment2": "−"
    },
    "13146": {
        "area": "留萌",
        "id": 13146,
        "type": "四",
        "name": "焼尻",
        "katakana": "ﾔｷﾞｼﾘ",
        "name_info": "羽幌町焼尻",
        "address": "苫前郡羽幌町焼尻白浜",
        "lat": 44.428333333333335,
        "lon": 141.42166666666665,
        "alt": 38,
        "alt_wind": "8",
        "alt_temp": "1.5",
        "start": "昭52.10.27",
        "comment1": "−",
        "comment2": "湿度を除く"
    },
    "13181": {
        "area": "留萌",
        "id": 13181,
        "type": "官",
        "name": "羽幌",
        "katakana": "ﾊﾎﾞﾛ",
        "name_info": "羽幌町南３条",
        "address": "苫前郡羽幌町南3条　羽幌特別地域気象観測所",
        "lat": 44.36333333333334,
        "lon": 141.7,
        "alt": 8,
        "alt_wind": "21.6",
        "alt_temp": "−",
        "start": "#昭51.1.1",
        "comment1": "13907",
        "comment2": "−"
    },
    "13206": {
        "area": "留萌",
        "id": 13206,
        "type": "雨",
        "name": "古丹別",
        "katakana": "ｺﾀﾝﾍﾞﾂ",
        "name_info": "苫前町古丹別",
        "address": "苫前郡苫前町古丹別",
        "lat": 44.265,
        "lon": 141.72166666666666,
        "alt": 15,
        "alt_wind": "−",
        "alt_temp": "−",
        "start": "昭51.8.4",
        "comment1": "13910",
        "comment2": "−"
    },
    "13261": {
        "area": "留萌",
        "id": 13261,
        "type": "四",
        "name": "達布",
        "katakana": "ﾀｯﾌﾟ",
        "name_info": "小平町達布",
        "address": "留萌郡小平町達布",
        "lat": 44.04833333333333,
        "lon": 141.85666666666665,
        "alt": 30,
        "alt_wind": "10",
        "alt_temp": "3.4",
        "start": "昭52.10.31",
        "comment1": "−",
        "comment2": "湿度を除く"
    },
    "13277": {
        "area": "留萌",
        "id": 13277,
        "type": "官",
        "name": "留萌",
        "katakana": "ﾙﾓｲ",
        "name_info": "留萌市大町",
        "address": "留萌市大町　留萌特別地域気象観測所",
        "lat": 43.945,
        "lon": 141.63166666666666,
        "alt": 24,
        "alt_wind": "16.3",
        "alt_temp": "−",
        "start": "昭55.6.21",
        "comment1": "13915",
        "comment2": "−"
    },
    "13311": {
        "area": "留萌",
        "id": 13311,
        "type": "四",
        "name": "増毛",
        "katakana": "ﾏｼｹ",
        "name_info": "増毛",
        "address": "増毛郡増毛町別苅",
        "lat": 43.848333333333336,
        "lon": 141.51,
        "alt": 20,
        "alt_wind": "9.4",
        "alt_temp": "1.5",
        "start": "#昭53.10.24",
        "comment1": "−",
        "comment2": "湿度を除く"
    },
    "13321": {
        "area": "留萌",
        "id": 13321,
        "type": "四",
        "name": "幌糠",
        "katakana": "ﾎﾛﾇｶ",
        "name_info": "留萌市幌糠",
        "address": "留萌市幌糠町",
        "lat": 43.85333333333333,
        "lon": 141.76,
        "alt": 20,
        "alt_wind": "10",
        "alt_temp": "1.5",
        "start": "昭52.10.31",
        "comment1": "13920",
        "comment2": "湿度を除く"
    },
    "14026": {
        "area": "石狩",
        "id": 14026,
        "type": "四",
        "name": "浜益",
        "katakana": "ﾊﾏﾏｽ",
        "name_info": "石狩市浜益",
        "address": "石狩市浜益区川下",
        "lat": 43.58166666666666,
        "lon": 141.38666666666666,
        "alt": 3,
        "alt_wind": "9.9",
        "alt_temp": "1.5",
        "start": "昭52.10.12",
        "comment1": "−",
        "comment2": "−"
    },
    "14071": {
        "area": "石狩",
        "id": 14071,
        "type": "四",
        "name": "厚田",
        "katakana": "ｱﾂﾀ",
        "name_info": "石狩市厚田",
        "address": "石狩市厚田区別狩",
        "lat": 43.39666666666667,
        "lon": 141.43666666666667,
        "alt": 5,
        "alt_wind": "10",
        "alt_temp": "1.5",
        "start": "昭52.10.12",
        "comment1": "14900",
        "comment2": "湿度を除く"
    },
    "14101": {
        "area": "石狩",
        "id": 14101,
        "type": "四",
        "name": "新篠津",
        "katakana": "ｼﾝｼﾉﾂ",
        "name_info": "新篠津",
        "address": "石狩郡新篠津村第46線北",
        "lat": 43.22,
        "lon": 141.645,
        "alt": 9,
        "alt_wind": "10",
        "alt_temp": "1.5",
        "start": "#昭53.10.23",
        "comment1": "14910",
        "comment2": "湿度を除く"
    },
    "14116": {
        "area": "石狩",
        "id": 14116,
        "type": "四",
        "name": "山口",
        "katakana": "ﾔﾏｸﾞﾁ",
        "name_info": "札幌市手稲区山口",
        "address": "札幌市手稲区手稲山口",
        "lat": 43.14833333333333,
        "lon": 141.22166666666666,
        "alt": 5,
        "alt_wind": "10",
        "alt_temp": "1.5",
        "start": "#昭52.10.11",
        "comment1": "−",
        "comment2": "湿度を除く"
    },
    "14121": {
        "area": "石狩",
        "id": 14121,
        "type": "四",
        "name": "石狩",
        "katakana": "ｲｼｶﾘ",
        "name_info": "石狩市石狩",
        "address": "石狩市生振",
        "lat": 43.193333333333335,
        "lon": 141.37,
        "alt": 5,
        "alt_wind": "10.1",
        "alt_temp": "1.5",
        "start": "平2.3.6",
        "comment1": "14905",
        "comment2": "−"
    },
    "14136": {
        "area": "石狩",
        "id": 14136,
        "type": "四",
        "name": "江別",
        "katakana": "ｴﾍﾞﾂ",
        "name_info": "江別",
        "address": "江別市江別太",
        "lat": 43.11,
        "lon": 141.60166666666666,
        "alt": 8,
        "alt_wind": "8",
        "alt_temp": "1.5",
        "start": "平12.10.31",
        "comment1": "−",
        "comment2": "湿度を除く"
    },
    "14157": {
        "area": "石狩",
        "id": 14157,
        "type": "雨",
        "name": "手稲山",
        "katakana": "ﾃｲﾈﾔﾏ",
        "name_info": "札幌市手稲山",
        "address": "札幌市手稲区手稲金山",
        "lat": 43.083333333333336,
        "lon": 141.20166666666665,
        "alt": 568,
        "alt_wind": "−",
        "alt_temp": "−",
        "start": "平22.3.24",
        "comment1": "−",
        "comment2": "−"
    },
    "14163": {
        "area": "石狩",
        "id": 14163,
        "type": "官",
        "name": "札幌",
        "katakana": "ｻｯﾎﾟﾛ",
        "name_info": "札幌市中央区",
        "address": "札幌市中央区北2条西",
        "lat": 43.06,
        "lon": 141.32666666666665,
        "alt": 17,
        "alt_wind": "59.7",
        "alt_temp": "−",
        "start": "平13.9.26",
        "comment1": "−",
        "comment2": "風"
    },
    "14191": {
        "area": "石狩",
        "id": 14191,
        "type": "雨",
        "name": "小金湯",
        "katakana": "ｺｶﾞﾈﾕ",
        "name_info": "札幌市南区小金湯",
        "address": "札幌市南区小金湯",
        "lat": 42.96333333333333,
        "lon": 141.21666666666667,
        "alt": 230,
        "alt_wind": "−",
        "alt_temp": "−",
        "start": "#",
        "comment1": "14915",
        "comment2": "−"
    },
    "14206": {
        "area": "石狩",
        "id": 14206,
        "type": "四",
        "name": "恵庭島松",
        "katakana": "ｴﾆﾜｼﾏﾏﾂ",
        "name_info": "恵庭市島松",
        "address": "恵庭市下島松",
        "lat": 42.92666666666667,
        "lon": 141.565,
        "alt": 30,
        "alt_wind": "9.9",
        "alt_temp": "1.5",
        "start": "#昭52.10.13",
        "comment1": "14920",
        "comment2": "−"
    },
    "14286": {
        "area": "石狩",
        "id": 14286,
        "type": "四",
        "name": "支笏湖畔",
        "katakana": "ｼｺﾂｺﾊﾝ",
        "name_info": "千歳市支笏湖畔",
        "address": "千歳市支笏湖温泉番外地",
        "lat": 42.77166666666667,
        "lon": 141.40666666666667,
        "alt": 290,
        "alt_wind": "10",
        "alt_temp": "1.5",
        "start": "#昭52.10.14",
        "comment1": "−",
        "comment2": "湿度を除く"
    },
    "14296": {
        "area": "石狩",
        "id": 14296,
        "type": "官",
        "name": "千歳",
        "katakana": "ﾁﾄｾ",
        "name_info": "新千歳空港",
        "address": "千歳市美々　新千歳航空測候所",
        "lat": 42.775,
        "lon": 141.69166666666666,
        "alt": 22,
        "alt_wind": "10",
        "alt_temp": "−",
        "start": "平15.1.1",
        "comment1": "14923",
        "comment2": "日照・湿度・気圧を除く"
    },
    "15116": {
        "area": "空知",
        "id": 15116,
        "type": "四",
        "name": "石狩沼田",
        "katakana": "ｲｼｶﾘﾇﾏﾀ",
        "name_info": "沼田町石狩沼田",
        "address": "雨竜郡沼田町緑町",
        "lat": 43.815,
        "lon": 141.92666666666668,
        "alt": 63,
        "alt_wind": "9.9",
        "alt_temp": "1.5",
        "start": "#昭51.4.1",
        "comment1": "15935",
        "comment2": "−"
    },
    "15156": {
        "area": "空知",
        "id": 15156,
        "type": "四",
        "name": "秩父別",
        "katakana": "ﾁｯﾌﾟﾍﾞﾂ",
        "name_info": "秩父別",
        "address": "雨竜郡秩父別町５条",
        "lat": 43.78,
        "lon": 141.96166666666667,
        "alt": 51,
        "alt_wind": "7.9",
        "alt_temp": "1.5",
        "start": "令4.10.31",
        "comment1": "15940",
        "comment2": "−"
    },
    "15161": {
        "area": "空知",
        "id": 15161,
        "type": "四",
        "name": "深川",
        "katakana": "ﾌｶｶﾞﾜ",
        "name_info": "深川",
        "address": "深川市一已町一已",
        "lat": 43.718333333333334,
        "lon": 142.07333333333332,
        "alt": 55,
        "alt_wind": "10",
        "alt_temp": "1.5",
        "start": "#昭52.10.7",
        "comment1": "15910",
        "comment2": "湿度を除く"
    },
    "15197": {
        "area": "空知",
        "id": 15197,
        "type": "雨",
        "name": "雨竜",
        "katakana": "ｳﾘｭｳ",
        "name_info": "雨竜町満寿",
        "address": "雨竜郡雨竜町満寿",
        "lat": 43.66,
        "lon": 141.89166666666668,
        "alt": 42,
        "alt_wind": "−",
        "alt_temp": "−",
        "start": "平17.11.1",
        "comment1": "−",
        "comment2": "−"
    },
    "15216": {
        "area": "空知",
        "id": 15216,
        "type": "雨",
        "name": "新城",
        "katakana": "ｼﾝｼﾞｮｳ",
        "name_info": "芦別市新城",
        "address": "芦別市新城",
        "lat": 43.611666666666665,
        "lon": 142.20333333333335,
        "alt": 147,
        "alt_wind": "−",
        "alt_temp": "−",
        "start": "昭59.10.5",
        "comment1": "−",
        "comment2": "−"
    },
    "15231": {
        "area": "空知",
        "id": 15231,
        "type": "四",
        "name": "空知吉野",
        "katakana": "ｿﾗﾁﾖｼﾉ",
        "name_info": "新十津川町空知吉野",
        "address": "樺戸郡新十津川町吉野",
        "lat": 43.595,
        "lon": 141.73166666666665,
        "alt": 100,
        "alt_wind": "10",
        "alt_temp": "1.5",
        "start": "昭53.11.2",
        "comment1": "−",
        "comment2": "湿度を除く"
    },
    "15241": {
        "area": "空知",
        "id": 15241,
        "type": "四",
        "name": "滝川",
        "katakana": "ﾀｷｶﾜ",
        "name_info": "滝川",
        "address": "滝川市南滝の川",
        "lat": 43.57,
        "lon": 141.93833333333333,
        "alt": 50,
        "alt_wind": "9.9",
        "alt_temp": "1.5",
        "start": "#昭51.4.1",
        "comment1": "15930",
        "comment2": "−"
    },
    "15247": {
        "area": "空知",
        "id": 15247,
        "type": "雨",
        "name": "赤平",
        "katakana": "ｱｶﾋﾞﾗ",
        "name_info": "赤平",
        "address": "赤平市東豊里町",
        "lat": 43.553333333333335,
        "lon": 142.06666666666666,
        "alt": 120,
        "alt_wind": "−",
        "alt_temp": "−",
        "start": "平17.10.31",
        "comment1": "−",
        "comment2": "−"
    },
    "15251": {
        "area": "空知",
        "id": 15251,
        "type": "四",
        "name": "芦別",
        "katakana": "ｱｼﾍﾞﾂ",
        "name_info": "芦別市北２条",
        "address": "芦別市北2条東",
        "lat": 43.52,
        "lon": 142.19,
        "alt": 91,
        "alt_wind": "10",
        "alt_temp": "1.5",
        "start": "#昭53.10.25",
        "comment1": "15915",
        "comment2": "湿度を除く"
    },
    "15276": {
        "area": "空知",
        "id": 15276,
        "type": "雨",
        "name": "浦臼",
        "katakana": "ｳﾗｳｽ",
        "name_info": "浦臼",
        "address": "樺戸郡浦臼町浦臼内",
        "lat": 43.428333333333335,
        "lon": 141.80833333333334,
        "alt": 25,
        "alt_wind": "−",
        "alt_temp": "−",
        "start": "昭58.8.2",
        "comment1": "−",
        "comment2": "−"
    },
    "15311": {
        "area": "空知",
        "id": 15311,
        "type": "四",
        "name": "月形",
        "katakana": "ﾂｷｶﾞﾀ",
        "name_info": "月形",
        "address": "樺戸郡月形町知来乙",
        "lat": 43.33,
        "lon": 141.61666666666667,
        "alt": 50,
        "alt_wind": "10",
        "alt_temp": "1.5",
        "start": "(昭50.5.16)昭52.10.6",
        "comment1": "−",
        "comment2": "湿度を除く"
    },
    "15321": {
        "area": "空知",
        "id": 15321,
        "type": "四",
        "name": "美唄",
        "katakana": "ﾋﾞﾊﾞｲ",
        "name_info": "美唄",
        "address": "美唄市北美唄町二区",
        "lat": 43.36333333333334,
        "lon": 141.82666666666665,
        "alt": 16,
        "alt_wind": "10",
        "alt_temp": "1.5",
        "start": "#昭52.10.5",
        "comment1": "15920",
        "comment2": "湿度を除く"
    },
    "15356": {
        "area": "空知",
        "id": 15356,
        "type": "官",
        "name": "岩見沢",
        "katakana": "ｲﾜﾐｻﾞﾜ",
        "name_info": "岩見沢市５条",
        "address": "岩見沢市5条東　岩見沢特別地域気象観測所",
        "lat": 43.211666666666666,
        "lon": 141.785,
        "alt": 42,
        "alt_wind": "22.1",
        "alt_temp": "−",
        "start": "#昭50.4.3",
        "comment1": "15923",
        "comment2": "−"
    },
    "15391": {
        "area": "空知",
        "id": 15391,
        "type": "雨",
        "name": "栗沢",
        "katakana": "ｸﾘｻﾜ",
        "name_info": "岩見沢市栗沢",
        "address": "岩見沢市栗沢町東本町",
        "lat": 43.12166666666667,
        "lon": 141.745,
        "alt": 20,
        "alt_wind": "−",
        "alt_temp": "−",
        "start": "昭50.6.7",
        "comment1": "−",
        "comment2": "−"
    },
    "15431": {
        "area": "空知",
        "id": 15431,
        "type": "四",
        "name": "長沼",
        "katakana": "ﾅｶﾞﾇﾏ",
        "name_info": "長沼",
        "address": "夕張郡長沼町本町北",
        "lat": 43.01166666666666,
        "lon": 141.69333333333333,
        "alt": 13,
        "alt_wind": "10.1",
        "alt_temp": "2.5",
        "start": "#昭52.10.5",
        "comment1": "−",
        "comment2": "−"
    },
    "15442": {
        "area": "空知",
        "id": 15442,
        "type": "四",
        "name": "夕張",
        "katakana": "ﾕｳﾊﾞﾘ",
        "name_info": "夕張市鹿の谷",
        "address": "夕張市鹿の谷山手町",
        "lat": 43.038333333333334,
        "lon": 141.95666666666668,
        "alt": 293,
        "alt_wind": "10.1",
        "alt_temp": "1.5",
        "start": "#昭51.4.1",
        "comment1": "15925",
        "comment2": "−"
    },
    "15451": {
        "area": "空知",
        "id": 15451,
        "type": "雨",
        "name": "鹿島",
        "katakana": "ｶｼﾏ",
        "name_info": "夕張市鹿島",
        "address": "夕張市鹿島富士見町",
        "lat": 43.08,
        "lon": 142.1,
        "alt": 310,
        "alt_wind": "−",
        "alt_temp": "−",
        "start": "昭58.8.2",
        "comment1": "−",
        "comment2": "−"
    },
    "15491": {
        "area": "空知",
        "id": 15491,
        "type": "雨",
        "name": "沼の沢",
        "katakana": "ﾇﾏﾉｻﾜ",
        "name_info": "夕張市沼の沢",
        "address": "夕張市沼ノ沢",
        "lat": 42.96,
        "lon": 142.02,
        "alt": 161,
        "alt_wind": "−",
        "alt_temp": "−",
        "start": "昭58.8.2",
        "comment1": "−",
        "comment2": "−"
    },
    "16026": {
        "area": "後志",
        "id": 16026,
        "type": "四",
        "name": "美国",
        "katakana": "ﾋﾞｸﾆ",
        "name_info": "積丹町美国",
        "address": "積丹郡積丹町美国町船澗",
        "lat": 43.27166666666667,
        "lon": 140.56333333333333,
        "alt": 75,
        "alt_wind": "10",
        "alt_temp": "1.5",
        "start": "#昭52.10.25",
        "comment1": "−",
        "comment2": "湿度を除く"
    },
    "16061": {
        "area": "後志",
        "id": 16061,
        "type": "四",
        "name": "神恵内",
        "katakana": "ｶﾓｴﾅｲ",
        "name_info": "神恵内",
        "address": "古宇郡神恵内村神恵内村",
        "lat": 43.145,
        "lon": 140.42333333333335,
        "alt": 50,
        "alt_wind": "9.9",
        "alt_temp": "1.5",
        "start": "昭52.10.24",
        "comment1": "−",
        "comment2": "−"
    },
    "16076": {
        "area": "後志",
        "id": 16076,
        "type": "四",
        "name": "余市",
        "katakana": "ﾖｲﾁ",
        "name_info": "余市",
        "address": "余市郡余市町豊丘町",
        "lat": 43.181666666666665,
        "lon": 140.75833333333333,
        "alt": 20,
        "alt_wind": "10",
        "alt_temp": "1.5",
        "start": "#昭52.10.31",
        "comment1": "16905",
        "comment2": "湿度を除く"
    },
    "16091": {
        "area": "後志",
        "id": 16091,
        "type": "官",
        "name": "小樽",
        "katakana": "ｵﾀﾙ",
        "name_info": "小樽",
        "address": "小樽市勝納町　小樽特別地域気象観測所",
        "lat": 43.181666666666665,
        "lon": 141.015,
        "alt": 25,
        "alt_wind": "13.6",
        "alt_temp": "−",
        "start": "#昭50.12.23",
        "comment1": "16903",
        "comment2": "−"
    },
    "16126": {
        "area": "後志",
        "id": 16126,
        "type": "雨",
        "name": "赤井川",
        "katakana": "ｱｶｲｶﾞﾜ",
        "name_info": "赤井川",
        "address": "余市郡赤井川村赤井川",
        "lat": 43.083333333333336,
        "lon": 140.82,
        "alt": 148,
        "alt_wind": "−",
        "alt_temp": "−",
        "start": "昭51.5.12",
        "comment1": "16900",
        "comment2": "−"
    },
    "16156": {
        "area": "後志",
        "id": 16156,
        "type": "四",
        "name": "共和",
        "katakana": "ｷｮｳﾜ",
        "name_info": "共和",
        "address": "岩内郡共和町南幌似",
        "lat": 42.98,
        "lon": 140.60333333333332,
        "alt": 15,
        "alt_wind": "10",
        "alt_temp": "1.5",
        "start": "#昭52.10.24",
        "comment1": "16910",
        "comment2": "湿度を除く"
    },
    "16206": {
        "area": "後志",
        "id": 16206,
        "type": "四",
        "name": "蘭越",
        "katakana": "ﾗﾝｺｼ",
        "name_info": "蘭越",
        "address": "磯谷郡蘭越町蘭越",
        "lat": 42.81,
        "lon": 140.54166666666666,
        "alt": 39,
        "alt_wind": "8",
        "alt_temp": "1.5",
        "start": "#昭52.10.20",
        "comment1": "16915",
        "comment2": "湿度を除く"
    },
    "16217": {
        "area": "後志",
        "id": 16217,
        "type": "官",
        "name": "倶知安",
        "katakana": "ｸｯﾁｬﾝ",
        "name_info": "倶知安",
        "address": "虻田郡倶知安町南1条東　倶知安特別地域気象観測所",
        "lat": 42.9,
        "lon": 140.75666666666666,
        "alt": 176,
        "alt_wind": "30.8",
        "alt_temp": "−",
        "start": "平3.8.28",
        "comment1": "16917",
        "comment2": "−"
    },
    "16252": {
        "area": "後志",
        "id": 16252,
        "type": "官",
        "name": "寿都",
        "katakana": "ｽｯﾂ",
        "name_info": "寿都",
        "address": "寿都郡寿都町新栄町　寿都特別地域気象観測所",
        "lat": 42.795,
        "lon": 140.22333333333333,
        "alt": 33,
        "alt_wind": "17.6",
        "alt_temp": "−",
        "start": "平元.9.22",
        "comment1": "16918",
        "comment2": "−"
    },
    "16272": {
        "area": "後志",
        "id": 16272,
        "type": "雨",
        "name": "ニセコ",
        "katakana": "ﾆｾｺ",
        "name_info": "ニセコ町宮田",
        "address": "虻田郡ニセコ町宮田",
        "lat": 42.778333333333336,
        "lon": 140.66666666666666,
        "alt": 113,
        "alt_wind": "−",
        "alt_temp": "−",
        "start": "平22.3.11",
        "comment1": "−",
        "comment2": "−"
    },
    "16281": {
        "area": "後志",
        "id": 16281,
        "type": "四",
        "name": "真狩",
        "katakana": "ﾏｯｶﾘ",
        "name_info": "真狩",
        "address": "虻田郡真狩村美原",
        "lat": 42.775,
        "lon": 140.88,
        "alt": 440,
        "alt_wind": "10",
        "alt_temp": "3.3",
        "start": "(昭50.7.1)昭53.10.27",
        "comment1": "−",
        "comment2": "湿度を除く"
    },
    "16286": {
        "area": "後志",
        "id": 16286,
        "type": "四",
        "name": "喜茂別",
        "katakana": "ｷﾓﾍﾞﾂ",
        "name_info": "喜茂別",
        "address": "虻田郡喜茂別町伏見",
        "lat": 42.79333333333334,
        "lon": 140.94833333333332,
        "alt": 264,
        "alt_wind": "10",
        "alt_temp": "2.9",
        "start": "#昭52.10.21",
        "comment1": "16920",
        "comment2": "湿度を除く"
    },
    "16321": {
        "area": "後志",
        "id": 16321,
        "type": "四",
        "name": "黒松内",
        "katakana": "ｸﾛﾏﾂﾅｲ",
        "name_info": "黒松内",
        "address": "寿都郡黒松内町黒松内",
        "lat": 42.663333333333334,
        "lon": 140.31,
        "alt": 27,
        "alt_wind": "10",
        "alt_temp": "1.5",
        "start": "#昭52.10.20",
        "comment1": "16925",
        "comment2": "湿度を除く"
    },
    "17036": {
        "area": "ｵﾎｰﾂｸ",
        "id": 17036,
        "type": "官",
        "name": "雄武",
        "katakana": "ｵｳﾑ",
        "name_info": "雄武",
        "address": "紋別郡雄武町雄武　雄武特別地域気象観測所",
        "lat": 44.58,
        "lon": 142.96333333333334,
        "alt": 14,
        "alt_wind": "16.6",
        "alt_temp": "−",
        "start": "#昭50.12.1",
        "comment1": "17903",
        "comment2": "−"
    },
    "17076": {
        "area": "ｵﾎｰﾂｸ",
        "id": 17076,
        "type": "四",
        "name": "興部",
        "katakana": "ｵｺｯﾍﾟ",
        "name_info": "興部",
        "address": "紋別郡興部町興部",
        "lat": 44.47,
        "lon": 143.10833333333332,
        "alt": 8,
        "alt_wind": "9.9",
        "alt_temp": "1.5",
        "start": "#昭52.10.28",
        "comment1": "−",
        "comment2": "−"
    },
    "17091": {
        "area": "ｵﾎｰﾂｸ",
        "id": 17091,
        "type": "四",
        "name": "西興部",
        "katakana": "ﾆｼｵｺｯﾍﾟ",
        "name_info": "西興部",
        "address": "紋別郡西興部村西興部",
        "lat": 44.33166666666666,
        "lon": 142.935,
        "alt": 120,
        "alt_wind": "8",
        "alt_temp": "2.5",
        "start": "(昭50.7.1)昭52.10.28",
        "comment1": "17900",
        "comment2": "湿度を除く"
    },
    "17112": {
        "area": "ｵﾎｰﾂｸ",
        "id": 17112,
        "type": "官",
        "name": "紋別",
        "katakana": "ﾓﾝﾍﾞﾂ",
        "name_info": "紋別市南が丘町",
        "address": "紋別市南が丘町　紋別特別地域気象観測所",
        "lat": 44.345,
        "lon": 143.355,
        "alt": 16,
        "alt_wind": "13.6",
        "alt_temp": "−",
        "start": "昭58.1.1",
        "comment1": "17904",
        "comment2": "−"
    },
    "17116": {
        "area": "ｵﾎｰﾂｸ",
        "id": 17116,
        "type": "官",
        "name": "紋別小向",
        "katakana": "ﾓﾝﾍﾞﾂｺﾑｶｲ",
        "name_info": "紋別空港",
        "address": "紋別市小向　紋別航空気象観測所",
        "lat": 44.303333333333335,
        "lon": 143.40333333333334,
        "alt": 18,
        "alt_wind": "10.4",
        "alt_temp": "−",
        "start": "平15.1.1",
        "comment1": "17960",
        "comment2": "日照・湿度・気圧を除く"
    },
    "17166": {
        "area": "ｵﾎｰﾂｸ",
        "id": 17166,
        "type": "四",
        "name": "湧別",
        "katakana": "ﾕｳﾍﾞﾂ",
        "name_info": "湧別",
        "address": "紋別郡湧別町東",
        "lat": 44.21333333333333,
        "lon": 143.61833333333334,
        "alt": 5,
        "alt_wind": "9.4",
        "alt_temp": "2.5",
        "start": "#昭52.10.26",
        "comment1": "−",
        "comment2": "湿度を除く"
    },
    "17196": {
        "area": "ｵﾎｰﾂｸ",
        "id": 17196,
        "type": "四",
        "name": "滝上",
        "katakana": "ﾀｷﾉｳｴ",
        "name_info": "滝上",
        "address": "紋別郡滝上町滝ノ上原野5線南",
        "lat": 44.17666666666667,
        "lon": 143.06166666666667,
        "alt": 165,
        "alt_wind": "10",
        "alt_temp": "2.5",
        "start": "#昭52.10.27",
        "comment1": "17905",
        "comment2": "湿度を除く"
    },
    "17211": {
        "area": "ｵﾎｰﾂｸ",
        "id": 17211,
        "type": "雨",
        "name": "上藻別",
        "katakana": "ｶﾐﾓﾍﾞﾂ",
        "name_info": "紋別市上藻別",
        "address": "紋別市上藻別",
        "lat": 44.18666666666667,
        "lon": 143.335,
        "alt": 94,
        "alt_wind": "−",
        "alt_temp": "−",
        "start": "#",
        "comment1": "−",
        "comment2": "−"
    },
    "17246": {
        "area": "ｵﾎｰﾂｸ",
        "id": 17246,
        "type": "四",
        "name": "常呂",
        "katakana": "ﾄｺﾛ",
        "name_info": "北見市常呂町",
        "address": "北見市常呂町岐阜",
        "lat": 44.115,
        "lon": 144.03666666666666,
        "alt": 3,
        "alt_wind": "10",
        "alt_temp": "2.5",
        "start": "#昭52.10.21",
        "comment1": "−",
        "comment2": "湿度を除く"
    },
    "17306": {
        "area": "ｵﾎｰﾂｸ",
        "id": 17306,
        "type": "四",
        "name": "遠軽",
        "katakana": "ｴﾝｶﾞﾙ",
        "name_info": "遠軽町遠軽",
        "address": "紋別郡遠軽町東町",
        "lat": 44.053333333333335,
        "lon": 143.54,
        "alt": 80,
        "alt_wind": "10",
        "alt_temp": "2.5",
        "start": "#昭52.10.24",
        "comment1": "17910",
        "comment2": "湿度を除く"
    },
    "17316": {
        "area": "ｵﾎｰﾂｸ",
        "id": 17316,
        "type": "四",
        "name": "佐呂間",
        "katakana": "ｻﾛﾏ",
        "name_info": "佐呂間",
        "address": "常呂郡佐呂間町西富",
        "lat": 44.01833333333333,
        "lon": 143.76,
        "alt": 54,
        "alt_wind": "10",
        "alt_temp": "2.5",
        "start": "#昭52.10.21",
        "comment1": "17915",
        "comment2": "湿度を除く"
    },
    "17341": {
        "area": "ｵﾎｰﾂｸ",
        "id": 17341,
        "type": "官",
        "name": "網走",
        "katakana": "ｱﾊﾞｼﾘ",
        "name_info": "網走市",
        "address": "網走市台町　網走地方気象台",
        "lat": 44.016666666666666,
        "lon": 144.27833333333334,
        "alt": 38,
        "alt_wind": "20",
        "alt_temp": "−",
        "start": "#昭50.4.1",
        "comment1": "17917",
        "comment2": "−"
    },
    "17351": {
        "area": "ｵﾎｰﾂｸ",
        "id": 17351,
        "type": "四",
        "name": "宇登呂",
        "katakana": "ｳﾄﾛ",
        "name_info": "斜里町宇登呂",
        "address": "斜里郡斜里町ウトロ高原",
        "lat": 44.05166666666667,
        "lon": 144.98166666666665,
        "alt": 144,
        "alt_wind": "10",
        "alt_temp": "2.5",
        "start": "(昭50.5.12)昭53.10.26",
        "comment1": "17935",
        "comment2": "湿度を除く"
    },
    "17386": {
        "area": "ｵﾎｰﾂｸ",
        "id": 17386,
        "type": "雨",
        "name": "丸瀬布",
        "katakana": "ﾏﾙｾｯﾌﾟ",
        "name_info": "遠軽町丸瀬布",
        "address": "紋別郡遠軽町丸瀬布武利",
        "lat": 43.95166666666667,
        "lon": 143.32833333333335,
        "alt": 242,
        "alt_wind": "−",
        "alt_temp": "−",
        "start": "昭59.10.5",
        "comment1": "−",
        "comment2": "−"
    },
    "17482": {
        "area": "ｵﾎｰﾂｸ",
        "id": 17482,
        "type": "四",
        "name": "白滝",
        "katakana": "ｼﾗﾀｷ",
        "name_info": "遠軽町白滝",
        "address": "紋別郡遠軽町白滝北支湧別",
        "lat": 43.865,
        "lon": 143.15333333333334,
        "alt": 475,
        "alt_wind": "10",
        "alt_temp": "2.5",
        "start": "(昭50.9.25)平5.1.27",
        "comment1": "17955",
        "comment2": "湿度を除く"
    },
    "17501": {
        "area": "ｵﾎｰﾂｸ",
        "id": 17501,
        "type": "四",
        "name": "生田原",
        "katakana": "ｲｸﾀﾊﾗ",
        "name_info": "遠軽町生田原",
        "address": "紋別郡遠軽町生田原",
        "lat": 43.916666666666664,
        "lon": 143.53166666666667,
        "alt": 199,
        "alt_wind": "10",
        "alt_temp": "2.5",
        "start": "#昭52.10.25",
        "comment1": "−",
        "comment2": "湿度を除く"
    },
    "17512": {
        "area": "ｵﾎｰﾂｸ",
        "id": 17512,
        "type": "雨",
        "name": "仁頃山",
        "katakana": "ﾆｺﾛﾔﾏ",
        "name_info": "北見市仁頃山",
        "address": "北見市富里",
        "lat": 43.86,
        "lon": 143.74666666666667,
        "alt": 261,
        "alt_wind": "−",
        "alt_temp": "−",
        "start": "平17.11.2",
        "comment1": "−",
        "comment2": "−"
    },
    "17521": {
        "area": "ｵﾎｰﾂｸ",
        "id": 17521,
        "type": "四",
        "name": "北見",
        "katakana": "ｷﾀﾐ",
        "name_info": "北見市広郷",
        "address": "北見市広郷",
        "lat": 43.776666666666664,
        "lon": 143.84166666666667,
        "alt": 104,
        "alt_wind": "10.1",
        "alt_temp": "2.5",
        "start": "#昭51.4.1",
        "comment1": "17925",
        "comment2": "−"
    },
    "17531": {
        "area": "ｵﾎｰﾂｸ",
        "id": 17531,
        "type": "官",
        "name": "女満別",
        "katakana": "ﾒﾏﾝﾍﾞﾂ",
        "name_info": "女満別空港",
        "address": "網走郡大空町女満別中央　女満別航空気象観測所",
        "lat": 43.88,
        "lon": 144.16333333333333,
        "alt": 33,
        "alt_wind": "10",
        "alt_temp": "−",
        "start": "平15.1.1",
        "comment1": "17965",
        "comment2": "日照・湿度・気圧を除く"
    },
    "17541": {
        "area": "ｵﾎｰﾂｸ",
        "id": 17541,
        "type": "雨",
        "name": "東藻琴",
        "katakana": "ﾋｶﾞｼﾓｺﾄ",
        "name_info": "大空町東藻琴",
        "address": "網走郡大空町東藻琴",
        "lat": 43.84,
        "lon": 144.285,
        "alt": 58,
        "alt_wind": "−",
        "alt_temp": "−",
        "start": "昭53.7.11",
        "comment1": "−",
        "comment2": "−"
    },
    "17546": {
        "area": "ｵﾎｰﾂｸ",
        "id": 17546,
        "type": "四",
        "name": "小清水",
        "katakana": "ｺｼﾐｽﾞ",
        "name_info": "小清水",
        "address": "斜里郡小清水町泉",
        "lat": 43.84166666666667,
        "lon": 144.485,
        "alt": 52,
        "alt_wind": "10",
        "alt_temp": "1.5",
        "start": "#昭52.10.19",
        "comment1": "−",
        "comment2": "湿度を除く"
    },
    "17561": {
        "area": "ｵﾎｰﾂｸ",
        "id": 17561,
        "type": "四",
        "name": "斜里",
        "katakana": "ｼｬﾘ",
        "name_info": "斜里町以久科",
        "address": "斜里郡斜里町以久科南",
        "lat": 43.885,
        "lon": 144.7,
        "alt": 15,
        "alt_wind": "10",
        "alt_temp": "2.5",
        "start": "#昭52.10.19",
        "comment1": "17940",
        "comment2": "湿度を除く"
    },
    "17596": {
        "area": "ｵﾎｰﾂｸ",
        "id": 17596,
        "type": "四",
        "name": "留辺蘂",
        "katakana": "ﾙﾍﾞｼﾍﾞ",
        "name_info": "北見市留辺蘂町",
        "address": "北見市留辺蘂町大和",
        "lat": 43.74166666666667,
        "lon": 143.45,
        "alt": 325,
        "alt_wind": "10",
        "alt_temp": "2.5",
        "start": "#昭53.11.1",
        "comment1": "17930",
        "comment2": "湿度を除く"
    },
    "17607": {
        "area": "ｵﾎｰﾂｸ",
        "id": 17607,
        "type": "四",
        "name": "境野",
        "katakana": "ｻｶｲﾉ",
        "name_info": "置戸町境野",
        "address": "常呂郡置戸町豊住",
        "lat": 43.70666666666666,
        "lon": 143.64333333333335,
        "alt": 184,
        "alt_wind": "10",
        "alt_temp": "2.5",
        "start": "昭52.10.25",
        "comment1": "−",
        "comment2": "湿度を除く"
    },
    "17631": {
        "area": "ｵﾎｰﾂｸ",
        "id": 17631,
        "type": "四",
        "name": "美幌",
        "katakana": "ﾋﾞﾎﾛ",
        "name_info": "美幌",
        "address": "網走郡美幌町福住",
        "lat": 43.77,
        "lon": 144.17166666666665,
        "alt": 60,
        "alt_wind": "10.1",
        "alt_temp": "1.5",
        "start": "#昭52.10.20",
        "comment1": "−",
        "comment2": "湿度を除く"
    },
    "17642": {
        "area": "ｵﾎｰﾂｸ",
        "id": 17642,
        "type": "雨",
        "name": "山園",
        "katakana": "ﾔﾏｿﾞﾉ",
        "name_info": "大空町山園",
        "address": "網走郡大空町東藻琴山園",
        "lat": 43.74333333333333,
        "lon": 144.33666666666667,
        "alt": 361,
        "alt_wind": "−",
        "alt_temp": "−",
        "start": "平22.3.18",
        "comment1": "−",
        "comment2": "−"
    },
    "17686": {
        "area": "ｵﾎｰﾂｸ",
        "id": 17686,
        "type": "雨",
        "name": "置戸常元",
        "katakana": "ｵｹﾄﾂﾈﾓﾄ",
        "name_info": "置戸町常元",
        "address": "常呂郡置戸町常元",
        "lat": 43.62,
        "lon": 143.44,
        "alt": 368,
        "alt_wind": "−",
        "alt_temp": "−",
        "start": "平17.11.8",
        "comment1": "−",
        "comment2": "−"
    },
    "17717": {
        "area": "ｵﾎｰﾂｸ",
        "id": 17717,
        "type": "四",
        "name": "津別",
        "katakana": "ﾂﾍﾞﾂ",
        "name_info": "津別町豊永",
        "address": "網走郡津別町豊永",
        "lat": 43.70166666666667,
        "lon": 144.03333333333333,
        "alt": 100,
        "alt_wind": "10",
        "alt_temp": "2.5",
        "start": "昭63.10.4",
        "comment1": "17950",
        "comment2": "湿度を除く"
    },
    "17776": {
        "area": "ｵﾎｰﾂｸ",
        "id": 17776,
        "type": "雨",
        "name": "津別二又",
        "katakana": "ﾂﾍﾞﾂﾌﾀﾏﾀ",
        "name_info": "津別町二又",
        "address": "網走郡津別町二又",
        "lat": 43.583333333333336,
        "lon": 143.865,
        "alt": 210,
        "alt_wind": "−",
        "alt_temp": "−",
        "start": "平17.11.4",
        "comment1": "−",
        "comment2": "−"
    },
    "18038": {
        "area": "根室",
        "id": 18038,
        "type": "四",
        "name": "羅臼",
        "katakana": "ﾗｳｽ",
        "name_info": "羅臼",
        "address": "目梨郡羅臼町栄町",
        "lat": 44.02333333333333,
        "lon": 145.18666666666667,
        "alt": 15,
        "alt_wind": "9.9",
        "alt_temp": "1.5",
        "start": "平17.11.1",
        "comment1": "18925",
        "comment2": "−"
    },
    "18091": {
        "area": "根室",
        "id": 18091,
        "type": "雨",
        "name": "糸櫛別",
        "katakana": "ｲﾄｸｼﾍﾞﾂ",
        "name_info": "標津町糸櫛別",
        "address": "標津郡標津町川北糸櫛別",
        "lat": 43.721666666666664,
        "lon": 144.98833333333334,
        "alt": 115,
        "alt_wind": "−",
        "alt_temp": "−",
        "start": "昭53.7.28",
        "comment1": "−",
        "comment2": "−"
    },
    "18136": {
        "area": "根室",
        "id": 18136,
        "type": "四",
        "name": "標津",
        "katakana": "ｼﾍﾞﾂ",
        "name_info": "標津町北２条",
        "address": "標津郡標津町北2条西",
        "lat": 43.66166666666667,
        "lon": 145.13166666666666,
        "alt": 3,
        "alt_wind": "9.9",
        "alt_temp": "1.5",
        "start": "#昭52.10.18",
        "comment1": "−",
        "comment2": "−"
    },
    "18161": {
        "area": "根室",
        "id": 18161,
        "type": "四",
        "name": "上標津",
        "katakana": "ｶﾐｼﾍﾞﾂ",
        "name_info": "中標津町上標津",
        "address": "標津郡中標津町上標津",
        "lat": 43.52,
        "lon": 144.74666666666667,
        "alt": 160,
        "alt_wind": "6.5",
        "alt_temp": "2.2",
        "start": "平15.10.16",
        "comment1": "−",
        "comment2": "湿度を除く"
    },
    "18171": {
        "area": "根室",
        "id": 18171,
        "type": "四",
        "name": "中標津",
        "katakana": "ﾅｶｼﾍﾞﾂ",
        "name_info": "中標津町桜ヶ丘",
        "address": "標津郡中標津町桜ヶ丘",
        "lat": 43.54333333333334,
        "lon": 144.97833333333332,
        "alt": 50,
        "alt_wind": "10.1",
        "alt_temp": "1.5",
        "start": "#昭52.10.18",
        "comment1": "18910",
        "comment2": "−"
    },
    "18174": {
        "area": "根室",
        "id": 18174,
        "type": "官",
        "name": "根室中標津",
        "katakana": "ﾈﾑﾛﾅｶｼﾍﾞﾂ",
        "name_info": "中標津空港",
        "address": "標津郡中標津町北中　中標津航空気象観測所",
        "lat": 43.57666666666667,
        "lon": 144.96,
        "alt": 65,
        "alt_wind": "10",
        "alt_temp": "−",
        "start": "平15.1.1",
        "comment1": "18930",
        "comment2": "日照・湿度・気圧を除く"
    },
    "18256": {
        "area": "根室",
        "id": 18256,
        "type": "四",
        "name": "別海",
        "katakana": "ﾍﾞﾂｶｲ",
        "name_info": "別海",
        "address": "野付郡別海町川上町",
        "lat": 43.38166666666667,
        "lon": 145.11833333333334,
        "alt": 23,
        "alt_wind": "9.9",
        "alt_temp": "1.5",
        "start": "#昭52.10.14",
        "comment1": "18915",
        "comment2": "−"
    },
    "18273": {
        "area": "根室",
        "id": 18273,
        "type": "官",
        "name": "根室",
        "katakana": "ﾈﾑﾛ",
        "name_info": "根室市弥栄町",
        "address": "根室市弥栄町　根室特別地域気象観測所",
        "lat": 43.33,
        "lon": 145.585,
        "alt": 25,
        "alt_wind": "29.2",
        "alt_temp": "−",
        "start": "平5.8.26",
        "comment1": "18917",
        "comment2": "−"
    },
    "18281": {
        "area": "根室",
        "id": 18281,
        "type": "四",
        "name": "納沙布",
        "katakana": "ﾉｻｯﾌﾟ",
        "name_info": "根室市納沙布",
        "address": "根室市温根元",
        "lat": 43.39333333333333,
        "lon": 145.75833333333333,
        "alt": 12,
        "alt_wind": "9.9",
        "alt_temp": "1.5",
        "start": "(昭50.5.29)昭52.10.13",
        "comment1": "−",
        "comment2": "−"
    },
    "18311": {
        "area": "根室",
        "id": 18311,
        "type": "四",
        "name": "厚床",
        "katakana": "ｱｯﾄｺ",
        "name_info": "根室市厚床",
        "address": "根室市西厚床",
        "lat": 43.221666666666664,
        "lon": 145.22666666666666,
        "alt": 41,
        "alt_wind": "9.9",
        "alt_temp": "1.5",
        "start": "昭52.10.14",
        "comment1": "18920",
        "comment2": "−"
    },
    "19021": {
        "area": "釧路",
        "id": 19021,
        "type": "四",
        "name": "川湯",
        "katakana": "ｶﾜﾕ",
        "name_info": "弟子屈町川湯",
        "address": "川上郡弟子屈町川湯駅前",
        "lat": 43.61666666666667,
        "lon": 144.45666666666668,
        "alt": 158,
        "alt_wind": "9.5",
        "alt_temp": "1.5",
        "start": "#昭52.10.6",
        "comment1": "19900",
        "comment2": "湿度を除く"
    },
    "19051": {
        "area": "釧路",
        "id": 19051,
        "type": "四",
        "name": "弟子屈",
        "katakana": "ﾃｼｶｶﾞ",
        "name_info": "弟子屈",
        "address": "川上郡弟子屈町弟子屈原野",
        "lat": 43.51,
        "lon": 144.46666666666667,
        "alt": 170,
        "alt_wind": "9.9",
        "alt_temp": "1.5",
        "start": "昭52.10.6",
        "comment1": "−",
        "comment2": "−"
    },
    "19076": {
        "area": "釧路",
        "id": 19076,
        "type": "四",
        "name": "阿寒湖畔",
        "katakana": "ｱｶﾝｺﾊﾝ",
        "name_info": "釧路市阿寒湖畔",
        "address": "釧路市阿寒町阿寒湖温泉",
        "lat": 43.43666666666667,
        "lon": 144.08333333333334,
        "alt": 426,
        "alt_wind": "9.9",
        "alt_temp": "1.5",
        "start": "#昭52.10.7",
        "comment1": "19910",
        "comment2": "湿度を除く"
    },
    "19151": {
        "area": "釧路",
        "id": 19151,
        "type": "四",
        "name": "標茶",
        "katakana": "ｼﾍﾞﾁｬ",
        "name_info": "標茶町開運",
        "address": "川上郡標茶町開運",
        "lat": 43.291666666666664,
        "lon": 144.58666666666667,
        "alt": 20,
        "alt_wind": "9.9",
        "alt_temp": "1.5",
        "start": "#昭52.10.11",
        "comment1": "19915",
        "comment2": "−"
    },
    "19191": {
        "area": "釧路",
        "id": 19191,
        "type": "四",
        "name": "鶴居",
        "katakana": "ﾂﾙｲ",
        "name_info": "鶴居",
        "address": "阿寒郡鶴居村鶴居東",
        "lat": 43.23166666666667,
        "lon": 144.325,
        "alt": 38,
        "alt_wind": "6.5",
        "alt_temp": "1.5",
        "start": "昭52.10.5",
        "comment1": "19920",
        "comment2": "湿度を除く"
    },
    "19261": {
        "area": "釧路",
        "id": 19261,
        "type": "四",
        "name": "中徹別",
        "katakana": "ﾅｶﾃｼﾍﾞﾂ",
        "name_info": "釧路市阿寒町中徹別",
        "address": "釧路市阿寒町徹別中央34線",
        "lat": 43.19833333333333,
        "lon": 144.14166666666668,
        "alt": 80,
        "alt_wind": "10",
        "alt_temp": "1.5",
        "start": "#昭52.10.7",
        "comment1": "19925",
        "comment2": "湿度を除く"
    },
    "19281": {
        "area": "釧路",
        "id": 19281,
        "type": "雨",
        "name": "塘路",
        "katakana": "ﾄｳﾛ",
        "name_info": "標茶町塘路",
        "address": "川上郡標茶町塘路",
        "lat": 43.14833333333333,
        "lon": 144.49666666666667,
        "alt": 25,
        "alt_wind": "−",
        "alt_temp": "−",
        "start": "昭58.8.2",
        "comment1": "−",
        "comment2": "−"
    },
    "19301": {
        "area": "釧路",
        "id": 19301,
        "type": "雨",
        "name": "茶内原野",
        "katakana": "ﾁｬﾅｲｹﾞﾝﾔ",
        "name_info": "浜中町茶内",
        "address": "厚岸郡浜中町茶内西13線",
        "lat": 43.17333333333333,
        "lon": 144.96666666666667,
        "alt": 70,
        "alt_wind": "−",
        "alt_temp": "−",
        "start": "昭59.10.1",
        "comment1": "−",
        "comment2": "−"
    },
    "19311": {
        "area": "釧路",
        "id": 19311,
        "type": "四",
        "name": "榊町",
        "katakana": "ｻｶｷﾏﾁ",
        "name_info": "浜中町榊町",
        "address": "厚岸郡浜中町榊町",
        "lat": 43.12,
        "lon": 145.11,
        "alt": 2,
        "alt_wind": "9.6",
        "alt_temp": "1.5",
        "start": "昭52.10.12",
        "comment1": "−",
        "comment2": "−"
    },
    "19346": {
        "area": "釧路",
        "id": 19346,
        "type": "雨",
        "name": "阿寒",
        "katakana": "ｱｶﾝ",
        "name_info": "釧路市阿寒町中央",
        "address": "釧路市阿寒町中央",
        "lat": 43.11333333333334,
        "lon": 144.12333333333333,
        "alt": 40,
        "alt_wind": "−",
        "alt_temp": "−",
        "start": "#",
        "comment1": "−",
        "comment2": "−"
    },
    "19347": {
        "area": "釧路",
        "id": 19347,
        "type": "官",
        "name": "鶴丘",
        "katakana": "ﾂﾙｵｶ",
        "name_info": "釧路空港",
        "address": "釧路市鶴丘　釧路航空気象観測所",
        "lat": 43.04,
        "lon": 144.19166666666666,
        "alt": 95,
        "alt_wind": "10",
        "alt_temp": "−",
        "start": "平15.1.1",
        "comment1": "19935",
        "comment2": "日照・湿度・気圧を除く"
    },
    "19376": {
        "area": "釧路",
        "id": 19376,
        "type": "四",
        "name": "太田",
        "katakana": "ｵｵﾀ",
        "name_info": "厚岸町太田",
        "address": "厚岸郡厚岸町太田",
        "lat": 43.09,
        "lon": 144.77833333333334,
        "alt": 85,
        "alt_wind": "9.9",
        "alt_temp": "1.5",
        "start": "昭52.10.11",
        "comment1": "19930",
        "comment2": "−"
    },
    "19406": {
        "area": "釧路",
        "id": 19406,
        "type": "雨",
        "name": "二俣",
        "katakana": "ﾌﾀﾏﾀ",
        "name_info": "釧路市音別町二俣",
        "address": "釧路市音別町音別原野基線",
        "lat": 42.971666666666664,
        "lon": 143.875,
        "alt": 45,
        "alt_wind": "−",
        "alt_temp": "−",
        "start": "昭51.6.29",
        "comment1": "−",
        "comment2": "−"
    },
    "19416": {
        "area": "釧路",
        "id": 19416,
        "type": "四",
        "name": "白糠",
        "katakana": "ｼﾗﾇｶ",
        "name_info": "白糠",
        "address": "白糠郡白糠町西2条北",
        "lat": 42.97,
        "lon": 144.06166666666667,
        "alt": 9,
        "alt_wind": "10",
        "alt_temp": "1.5",
        "start": "#昭52.10.5",
        "comment1": "19940",
        "comment2": "湿度を除く"
    },
    "19432": {
        "area": "釧路",
        "id": 19432,
        "type": "官",
        "name": "釧路",
        "katakana": "ｸｼﾛ",
        "name_info": "釧路市幸町",
        "address": "釧路市幸町　釧路地方気象台",
        "lat": 42.985,
        "lon": 144.37666666666667,
        "alt": 5,
        "alt_wind": "66.1",
        "alt_temp": "−",
        "start": "平12.10.5",
        "comment1": "19950",
        "comment2": "−"
    },
    "19451": {
        "area": "釧路",
        "id": 19451,
        "type": "四",
        "name": "知方学",
        "katakana": "ﾁｯﾎﾟﾏﾅｲ",
        "name_info": "釧路町知方学",
        "address": "釧路郡釧路町仙鳳趾村知方学",
        "lat": 42.93833333333333,
        "lon": 144.735,
        "alt": 149,
        "alt_wind": "10.1",
        "alt_temp": "1.5",
        "start": "昭53.10.27",
        "comment1": "−",
        "comment2": "−"
    },
    "20047": {
        "area": "十勝",
        "id": 20047,
        "type": "雨",
        "name": "三股",
        "katakana": "ﾐﾂﾏﾀ",
        "name_info": "上士幌町三股",
        "address": "河東郡上士幌町三股",
        "lat": 43.51,
        "lon": 143.14833333333334,
        "alt": 660,
        "alt_wind": "−",
        "alt_temp": "−",
        "start": "平17.11.9",
        "comment1": "−",
        "comment2": "−"
    },
    "20071": {
        "area": "十勝",
        "id": 20071,
        "type": "雨",
        "name": "小利別",
        "katakana": "ｼｮｳﾄｼﾍﾞﾂ",
        "name_info": "陸別町小利別",
        "address": "足寄郡陸別町小利別本通東1条",
        "lat": 43.58833333333333,
        "lon": 143.68,
        "alt": 313,
        "alt_wind": "−",
        "alt_temp": "−",
        "start": "昭58.8.2",
        "comment1": "−",
        "comment2": "−"
    },
    "20146": {
        "area": "十勝",
        "id": 20146,
        "type": "四",
        "name": "陸別",
        "katakana": "ﾘｸﾍﾞﾂ",
        "name_info": "陸別",
        "address": "足寄郡陸別町陸別原野基線",
        "lat": 43.471666666666664,
        "lon": 143.75333333333333,
        "alt": 210,
        "alt_wind": "10",
        "alt_temp": "1.5",
        "start": "#昭52.10.21",
        "comment1": "20900",
        "comment2": "−"
    },
    "20186": {
        "area": "十勝",
        "id": 20186,
        "type": "四",
        "name": "ぬかびら源泉郷",
        "katakana": "ﾇｶﾋﾞﾗｹﾞﾝｾﾝｷｮｳ",
        "name_info": "上士幌町ぬかびら源泉郷",
        "address": "河東郡上士幌町ぬかびら源泉郷北区",
        "lat": 43.36666666666667,
        "lon": 143.19166666666666,
        "alt": 540,
        "alt_wind": "9.9",
        "alt_temp": "1.5",
        "start": "昭51.4.1",
        "comment1": "20910",
        "comment2": "−"
    },
    "20202": {
        "area": "十勝",
        "id": 20202,
        "type": "雨",
        "name": "柏倉",
        "katakana": "ｶｼﾜｸﾗ",
        "name_info": "足寄町柏倉",
        "address": "足寄郡足寄町茂喜登牛",
        "lat": 43.361666666666665,
        "lon": 143.45833333333334,
        "alt": 378,
        "alt_wind": "−",
        "alt_temp": "−",
        "start": "昭58.8.2",
        "comment1": "−",
        "comment2": "−"
    },
    "20222": {
        "area": "十勝",
        "id": 20222,
        "type": "雨",
        "name": "上螺湾",
        "katakana": "ｶﾐﾗﾜﾝ",
        "name_info": "足寄町上螺湾",
        "address": "足寄郡足寄町上螺湾",
        "lat": 43.318333333333335,
        "lon": 143.80166666666668,
        "alt": 232,
        "alt_wind": "−",
        "alt_temp": "−",
        "start": "昭58.10.5",
        "comment1": "−",
        "comment2": "−"
    },
    "20266": {
        "area": "十勝",
        "id": 20266,
        "type": "四",
        "name": "上士幌",
        "katakana": "ｶﾐｼﾎﾛ",
        "name_info": "上士幌町東３線",
        "address": "河東郡上士幌町東3線",
        "lat": 43.24166666666667,
        "lon": 143.295,
        "alt": 287,
        "alt_wind": "10.1",
        "alt_temp": "1.5",
        "start": "#昭52.10.20",
        "comment1": "20920",
        "comment2": "−"
    },
    "20276": {
        "area": "十勝",
        "id": 20276,
        "type": "四",
        "name": "足寄",
        "katakana": "ｱｼｮﾛ",
        "name_info": "足寄町南１条",
        "address": "足寄郡足寄町南1条",
        "lat": 43.24333333333333,
        "lon": 143.55333333333334,
        "alt": 90,
        "alt_wind": "10",
        "alt_temp": "1.5",
        "start": "#昭52.10.21",
        "comment1": "−",
        "comment2": "湿度を除く"
    },
    "20331": {
        "area": "十勝",
        "id": 20331,
        "type": "雨",
        "name": "押帯",
        "katakana": "ｵｼｮｯﾌﾟ",
        "name_info": "本別町押帯",
        "address": "中川郡本別町押帯",
        "lat": 43.115,
        "lon": 143.44333333333333,
        "alt": 104,
        "alt_wind": "−",
        "alt_temp": "−",
        "start": "昭58.8.2",
        "comment1": "−",
        "comment2": "−"
    },
    "20341": {
        "area": "十勝",
        "id": 20341,
        "type": "四",
        "name": "本別",
        "katakana": "ﾎﾝﾍﾞﾂ",
        "name_info": "本別町新町",
        "address": "中川郡本別町新町",
        "lat": 43.13166666666667,
        "lon": 143.6,
        "alt": 67,
        "alt_wind": "10",
        "alt_temp": "1.5",
        "start": "#昭51.3.10",
        "comment1": "20935",
        "comment2": "−"
    },
    "20356": {
        "area": "十勝",
        "id": 20356,
        "type": "四",
        "name": "新得",
        "katakana": "ｼﾝﾄｸ",
        "name_info": "新得町４条",
        "address": "上川郡新得町4条南",
        "lat": 43.07666666666667,
        "lon": 142.84,
        "alt": 178,
        "alt_wind": "9.9",
        "alt_temp": "1.5",
        "start": "#昭52.10.24",
        "comment1": "20930",
        "comment2": "−"
    },
    "20361": {
        "area": "十勝",
        "id": 20361,
        "type": "四",
        "name": "鹿追",
        "katakana": "ｼｶｵｲ",
        "name_info": "鹿追町緑町",
        "address": "河東郡鹿追町緑町",
        "lat": 43.10333333333333,
        "lon": 142.995,
        "alt": 206,
        "alt_wind": "8",
        "alt_temp": "1.5",
        "start": "#昭53.10.30",
        "comment1": "−",
        "comment2": "湿度を除く"
    },
    "20371": {
        "area": "十勝",
        "id": 20371,
        "type": "四",
        "name": "駒場",
        "katakana": "ｺﾏﾊﾞ",
        "name_info": "音更町駒場",
        "address": "河東郡音更町駒場北町",
        "lat": 43.05,
        "lon": 143.18333333333334,
        "alt": 112,
        "alt_wind": "10",
        "alt_temp": "1.5",
        "start": "昭52.10.20",
        "comment1": "−",
        "comment2": "湿度を除く"
    },
    "20421": {
        "area": "十勝",
        "id": 20421,
        "type": "四",
        "name": "芽室",
        "katakana": "ﾒﾑﾛ",
        "name_info": "芽室",
        "address": "河西郡芽室町西3条南",
        "lat": 42.9,
        "lon": 143.04333333333332,
        "alt": 90,
        "alt_wind": "10",
        "alt_temp": "1.5",
        "start": "#昭52.10.24",
        "comment1": "20940",
        "comment2": "湿度を除く"
    },
    "20432": {
        "area": "十勝",
        "id": 20432,
        "type": "官",
        "name": "帯広",
        "katakana": "ｵﾋﾞﾋﾛ",
        "name_info": "帯広",
        "address": "帯広市東9条南",
        "lat": 42.90833333333333,
        "lon": 143.22333333333333,
        "alt": 45,
        "alt_wind": "11.2",
        "alt_temp": "−",
        "start": "平10.1.28",
        "comment1": "−",
        "comment2": "風、日照"
    },
    "20441": {
        "area": "十勝",
        "id": 20441,
        "type": "四",
        "name": "池田",
        "katakana": "ｲｹﾀﾞ",
        "name_info": "池田",
        "address": "中川郡池田町清見",
        "lat": 42.92,
        "lon": 143.45833333333334,
        "alt": 42,
        "alt_wind": "10",
        "alt_temp": "1.5",
        "start": "#昭52.10.26",
        "comment1": "−",
        "comment2": "湿度を除く"
    },
    "20451": {
        "area": "十勝",
        "id": 20451,
        "type": "雨",
        "name": "留真",
        "katakana": "ﾙｼﾝ",
        "name_info": "浦幌町留真",
        "address": "十勝郡浦幌町留真",
        "lat": 42.916666666666664,
        "lon": 143.66166666666666,
        "alt": 40,
        "alt_wind": "−",
        "alt_temp": "−",
        "start": "昭59.10.1",
        "comment1": "−",
        "comment2": "−"
    },
    "20506": {
        "area": "十勝",
        "id": 20506,
        "type": "四",
        "name": "浦幌",
        "katakana": "ｳﾗﾎﾛ",
        "name_info": "浦幌町桜町",
        "address": "十勝郡浦幌町桜町",
        "lat": 42.80833333333333,
        "lon": 143.65666666666667,
        "alt": 20,
        "alt_wind": "8.3",
        "alt_temp": "1.5",
        "start": "#昭52.10.27",
        "comment1": "20945",
        "comment2": "湿度を除く"
    },
    "20551": {
        "area": "十勝",
        "id": 20551,
        "type": "官",
        "name": "帯広泉",
        "katakana": "ｵﾋﾞﾋﾛｲｽﾞﾐ",
        "name_info": "帯広空港",
        "address": "帯広市泉町西9線中　帯広航空気象観測所",
        "lat": 42.733333333333334,
        "lon": 143.21666666666667,
        "alt": 149,
        "alt_wind": "10",
        "alt_temp": "−",
        "start": "平15.1.1",
        "comment1": "20955",
        "comment2": "日照・湿度・気圧を除く"
    },
    "20556": {
        "area": "十勝",
        "id": 20556,
        "type": "四",
        "name": "糠内",
        "katakana": "ﾇｶﾅｲ",
        "name_info": "幕別町糠内",
        "address": "中川郡幕別町五位",
        "lat": 42.78666666666667,
        "lon": 143.32833333333335,
        "alt": 70,
        "alt_wind": "10",
        "alt_temp": "1.5",
        "start": "昭53.10.30",
        "comment1": "−",
        "comment2": "湿度を除く"
    },
    "20601": {
        "area": "十勝",
        "id": 20601,
        "type": "四",
        "name": "上札内",
        "katakana": "ｶﾐｻﾂﾅｲ",
        "name_info": "中札内村上札内",
        "address": "河西郡中札内村元札内西1線",
        "lat": 42.641666666666666,
        "lon": 143.09666666666666,
        "alt": 251,
        "alt_wind": "10",
        "alt_temp": "1.5",
        "start": "昭52.10.25",
        "comment1": "20950",
        "comment2": "湿度を除く"
    },
    "20606": {
        "area": "十勝",
        "id": 20606,
        "type": "四",
        "name": "更別",
        "katakana": "ｻﾗﾍﾞﾂ",
        "name_info": "更別",
        "address": "河西郡更別村更別南2線",
        "lat": 42.651666666666664,
        "lon": 143.195,
        "alt": 185,
        "alt_wind": "10",
        "alt_temp": "1.5",
        "start": "昭52.10.25",
        "comment1": "−",
        "comment2": "湿度を除く"
    },
    "20631": {
        "area": "十勝",
        "id": 20631,
        "type": "四",
        "name": "大津",
        "katakana": "ｵｵﾂ",
        "name_info": "豊頃町大津",
        "address": "中川郡豊頃町大津寿町",
        "lat": 42.68666666666667,
        "lon": 143.64666666666668,
        "alt": 4,
        "alt_wind": "10",
        "alt_temp": "1.5",
        "start": "昭52.10.27",
        "comment1": "−",
        "comment2": "湿度を除く"
    },
    "20696": {
        "area": "十勝",
        "id": 20696,
        "type": "四",
        "name": "大樹",
        "katakana": "ﾀｲｷ",
        "name_info": "大樹",
        "address": "広尾郡大樹町柏木町",
        "lat": 42.5,
        "lon": 143.27333333333334,
        "alt": 87,
        "alt_wind": "10",
        "alt_temp": "1.5",
        "start": "#昭52.10.26",
        "comment1": "20960",
        "comment2": "湿度を除く"
    },
    "20751": {
        "area": "十勝",
        "id": 20751,
        "type": "官",
        "name": "広尾",
        "katakana": "ﾋﾛｵ",
        "name_info": "広尾",
        "address": "広尾郡広尾町並木通東　広尾特別地域気象観測所",
        "lat": 42.29333333333334,
        "lon": 143.31666666666666,
        "alt": 32,
        "alt_wind": "20.1",
        "alt_temp": "−",
        "start": "#昭50.12.19",
        "comment1": "20965",
        "comment2": "−"
    },
    "21031": {
        "area": "胆振",
        "id": 21031,
        "type": "雨",
        "name": "安平",
        "katakana": "ｱﾋﾞﾗ",
        "name_info": "安平",
        "address": "勇払郡安平町安平",
        "lat": 42.815,
        "lon": 141.82833333333335,
        "alt": 33,
        "alt_wind": "−",
        "alt_temp": "−",
        "start": "#",
        "comment1": "21900",
        "comment2": "−"
    },
    "21111": {
        "area": "胆振",
        "id": 21111,
        "type": "四",
        "name": "厚真",
        "katakana": "ｱﾂﾏ",
        "name_info": "厚真",
        "address": "勇払郡厚真町朝日",
        "lat": 42.73,
        "lon": 141.88833333333332,
        "alt": 20,
        "alt_wind": "10",
        "alt_temp": "1.5",
        "start": "#昭52.10.5",
        "comment1": "−",
        "comment2": "湿度を除く"
    },
    "21126": {
        "area": "胆振",
        "id": 21126,
        "type": "四",
        "name": "穂別",
        "katakana": "ﾎﾍﾞﾂ",
        "name_info": "むかわ町穂別",
        "address": "勇払郡むかわ町穂別",
        "lat": 42.76166666666667,
        "lon": 142.14333333333335,
        "alt": 56,
        "alt_wind": "9.9",
        "alt_temp": "1.5",
        "start": "#昭52.10.5",
        "comment1": "21905",
        "comment2": "−"
    },
    "21161": {
        "area": "胆振",
        "id": 21161,
        "type": "四",
        "name": "大滝",
        "katakana": "ｵｵﾀｷ",
        "name_info": "伊達市大滝",
        "address": "伊達市大滝区本町",
        "lat": 42.67,
        "lon": 141.07833333333335,
        "alt": 390,
        "alt_wind": "9.9",
        "alt_temp": "1.5",
        "start": "(昭50.6.3)昭52.10.7",
        "comment1": "21910",
        "comment2": "−"
    },
    "21171": {
        "area": "胆振",
        "id": 21171,
        "type": "四",
        "name": "森野",
        "katakana": "ﾓﾘﾉ",
        "name_info": "白老町森野",
        "address": "白老郡白老町森野",
        "lat": 42.63,
        "lon": 141.24666666666667,
        "alt": 170,
        "alt_wind": "9.9",
        "alt_temp": "1.5",
        "start": "#昭52.10.27",
        "comment1": "−",
        "comment2": "−"
    },
    "21187": {
        "area": "胆振",
        "id": 21187,
        "type": "官",
        "name": "苫小牧",
        "katakana": "ﾄﾏｺﾏｲ",
        "name_info": "苫小牧",
        "address": "苫小牧市しらかば町　苫小牧特別地域気象観測所",
        "lat": 42.623333333333335,
        "lon": 141.54666666666665,
        "alt": 6,
        "alt_wind": "20.2",
        "alt_temp": "−",
        "start": "昭63.6.25",
        "comment1": "21913",
        "comment2": "−"
    },
    "21226": {
        "area": "胆振",
        "id": 21226,
        "type": "四",
        "name": "大岸",
        "katakana": "ｵｵｷｼ",
        "name_info": "豊浦町大岸",
        "address": "虻田郡豊浦町大岸",
        "lat": 42.59,
        "lon": 140.64333333333335,
        "alt": 4,
        "alt_wind": "10.1",
        "alt_temp": "1.5",
        "start": "#昭52.10.11",
        "comment1": "21915",
        "comment2": "−"
    },
    "21237": {
        "area": "胆振",
        "id": 21237,
        "type": "雨",
        "name": "洞爺湖温泉",
        "katakana": "ﾄｳﾔｺｵﾝｾﾝ",
        "name_info": "洞爺湖温泉",
        "address": "虻田郡洞爺湖町洞爺湖温泉",
        "lat": 42.565,
        "lon": 140.80666666666667,
        "alt": 85,
        "alt_wind": "−",
        "alt_temp": "−",
        "start": "昭53.12.8",
        "comment1": "−",
        "comment2": "−"
    },
    "21251": {
        "area": "胆振",
        "id": 21251,
        "type": "雨",
        "name": "カルルス",
        "katakana": "ｶﾙﾙｽ",
        "name_info": "登別市カルルス",
        "address": "登別市カルルス町",
        "lat": 42.516666666666666,
        "lon": 141.10666666666665,
        "alt": 300,
        "alt_wind": "−",
        "alt_temp": "−",
        "start": "昭60.7.31",
        "comment1": "−",
        "comment2": "−"
    },
    "21261": {
        "area": "胆振",
        "id": 21261,
        "type": "四",
        "name": "白老",
        "katakana": "ｼﾗｵｲ",
        "name_info": "白老町高砂町",
        "address": "白老郡白老町高砂町",
        "lat": 42.54333333333334,
        "lon": 141.35166666666666,
        "alt": 6,
        "alt_wind": "6.5",
        "alt_temp": "1.5",
        "start": "#昭52.10.6",
        "comment1": "21920",
        "comment2": "湿度を除く"
    },
    "21276": {
        "area": "胆振",
        "id": 21276,
        "type": "四",
        "name": "鵡川",
        "katakana": "ﾑｶﾜ",
        "name_info": "むかわ町鵡川",
        "address": "勇払郡むかわ町豊城",
        "lat": 42.59,
        "lon": 141.93333333333334,
        "alt": 10,
        "alt_wind": "10",
        "alt_temp": "1.5",
        "start": "#昭53.10.26",
        "comment1": "−",
        "comment2": "湿度を除く"
    },
    "21297": {
        "area": "胆振",
        "id": 21297,
        "type": "四",
        "name": "伊達",
        "katakana": "ﾀﾞﾃ",
        "name_info": "伊達市館山下町",
        "address": "伊達市館山下町",
        "lat": 42.475,
        "lon": 140.84833333333333,
        "alt": 3,
        "alt_wind": "10",
        "alt_temp": "1.5",
        "start": "#昭52.10.11",
        "comment1": "−",
        "comment2": "湿度を除く"
    },
    "21312": {
        "area": "胆振",
        "id": 21312,
        "type": "四",
        "name": "登別",
        "katakana": "ﾉﾎﾞﾘﾍﾞﾂ",
        "name_info": "登別市札内町",
        "address": "登別市札内町",
        "lat": 42.458333333333336,
        "lon": 141.11833333333334,
        "alt": 197,
        "alt_wind": "10",
        "alt_temp": "1.5",
        "start": "#昭58.8.10",
        "comment1": "21925",
        "comment2": "湿度を除く"
    },
    "21323": {
        "area": "胆振",
        "id": 21323,
        "type": "官",
        "name": "室蘭",
        "katakana": "ﾑﾛﾗﾝ",
        "name_info": "室蘭",
        "address": "室蘭市山手町　室蘭地方気象台",
        "lat": 42.31166666666667,
        "lon": 140.975,
        "alt": 40,
        "alt_wind": "18.4",
        "alt_temp": "−",
        "start": "#昭60.7.1",
        "comment1": "21930",
        "comment2": "−"
    },
    "22036": {
        "area": "日高",
        "id": 22036,
        "type": "四",
        "name": "日高",
        "katakana": "ﾋﾀﾞｶ",
        "name_info": "日高町本町",
        "address": "沙流郡日高町本町東",
        "lat": 42.876666666666665,
        "lon": 142.44166666666666,
        "alt": 280,
        "alt_wind": "10",
        "alt_temp": "1.5",
        "start": "昭52.10.19",
        "comment1": "22900",
        "comment2": "湿度を除く"
    },
    "22072": {
        "area": "日高",
        "id": 22072,
        "type": "雨",
        "name": "仁世宇",
        "katakana": "ﾆｾｳ",
        "name_info": "平取町仁世宇",
        "address": "沙流郡平取町仁世宇",
        "lat": 42.77166666666667,
        "lon": 142.35833333333332,
        "alt": 150,
        "alt_wind": "−",
        "alt_temp": "−",
        "start": "昭60.9.25",
        "comment1": "−",
        "comment2": "−"
    },
    "22106": {
        "area": "日高",
        "id": 22106,
        "type": "雨",
        "name": "旭",
        "katakana": "ｱｻﾋ",
        "name_info": "平取町旭",
        "address": "沙流郡平取町旭地区",
        "lat": 42.62833333333333,
        "lon": 142.39333333333335,
        "alt": 245,
        "alt_wind": "−",
        "alt_temp": "−",
        "start": "昭60.9.26",
        "comment1": "22906",
        "comment2": "−"
    },
    "22141": {
        "area": "日高",
        "id": 22141,
        "type": "四",
        "name": "日高門別",
        "katakana": "ﾋﾀﾞｶﾓﾝﾍﾞﾂ",
        "name_info": "日高町門別",
        "address": "沙流郡日高町富浜",
        "lat": 42.49666666666667,
        "lon": 142.05333333333334,
        "alt": 47,
        "alt_wind": "9.9",
        "alt_temp": "1.5",
        "start": "#昭51.3.11",
        "comment1": "−",
        "comment2": "−"
    },
    "22156": {
        "area": "日高",
        "id": 22156,
        "type": "四",
        "name": "新和",
        "katakana": "ｼﾝﾜ",
        "name_info": "新冠町新和",
        "address": "新冠郡新冠町新和",
        "lat": 42.54333333333334,
        "lon": 142.33333333333334,
        "alt": 60,
        "alt_wind": "10",
        "alt_temp": "1.9",
        "start": "#昭52.10.18",
        "comment1": "−",
        "comment2": "湿度を除く"
    },
    "22206": {
        "area": "日高",
        "id": 22206,
        "type": "雨",
        "name": "笹山",
        "katakana": "ｻｻﾔﾏ",
        "name_info": "新ひだか町笹山",
        "address": "日高郡新ひだか町静内御園",
        "lat": 42.43333333333333,
        "lon": 142.48166666666665,
        "alt": 110,
        "alt_wind": "−",
        "alt_temp": "−",
        "start": "昭62.10.6",
        "comment1": "−",
        "comment2": "−"
    },
    "22241": {
        "area": "日高",
        "id": 22241,
        "type": "四",
        "name": "静内",
        "katakana": "ｼｽﾞﾅｲ",
        "name_info": "新ひだか町静内",
        "address": "日高郡新ひだか町静内山手町",
        "lat": 42.343333333333334,
        "lon": 142.36166666666668,
        "alt": 10,
        "alt_wind": "9.9",
        "alt_temp": "1.5",
        "start": "#昭52.10.17",
        "comment1": "22920",
        "comment2": "−"
    },
    "22291": {
        "area": "日高",
        "id": 22291,
        "type": "四",
        "name": "三石",
        "katakana": "ﾐﾂｲｼ",
        "name_info": "新ひだか町三石",
        "address": "日高郡新ひだか町三石美野和",
        "lat": 42.245,
        "lon": 142.66166666666666,
        "alt": 10,
        "alt_wind": "10",
        "alt_temp": "1.5",
        "start": "昭52.10.17",
        "comment1": "−",
        "comment2": "湿度を除く"
    },
    "22306": {
        "area": "日高",
        "id": 22306,
        "type": "四",
        "name": "中杵臼",
        "katakana": "ﾅｶｷﾈｳｽ",
        "name_info": "浦河町中杵臼",
        "address": "浦河郡浦河町上杵臼",
        "lat": 42.223333333333336,
        "lon": 142.94833333333332,
        "alt": 98,
        "alt_wind": "10",
        "alt_temp": "1.5",
        "start": "昭53.10.31",
        "comment1": "22910",
        "comment2": "湿度を除く"
    },
    "22327": {
        "area": "日高",
        "id": 22327,
        "type": "官",
        "name": "浦河",
        "katakana": "ｳﾗｶﾜ",
        "name_info": "浦河町潮見町",
        "address": "浦河郡浦河町潮見町　浦河特別地域気象観測所",
        "lat": 42.16166666666667,
        "lon": 142.77666666666667,
        "alt": 37,
        "alt_wind": "18.1",
        "alt_temp": "−",
        "start": "#昭58.3.1",
        "comment1": "22913",
        "comment2": "−"
    },
    "22356": {
        "area": "日高",
        "id": 22356,
        "type": "雨",
        "name": "目黒",
        "katakana": "ﾒｸﾞﾛ",
        "name_info": "えりも町目黒",
        "address": "幌泉郡えりも町目黒",
        "lat": 42.12833333333333,
        "lon": 143.31166666666667,
        "alt": 7,
        "alt_wind": "−",
        "alt_temp": "−",
        "start": "昭53.8.30",
        "comment1": "22915",
        "comment2": "−"
    },
    "22366": {
        "area": "日高",
        "id": 22366,
        "type": "雨",
        "name": "幌満",
        "katakana": "ﾎﾛﾏﾝ",
        "name_info": "様似町幌満",
        "address": "様似郡様似町幌満",
        "lat": 42.07666666666667,
        "lon": 143.035,
        "alt": 0,
        "alt_wind": "−",
        "alt_temp": "−",
        "start": "昭53.7.14",
        "comment1": "−",
        "comment2": "−"
    },
    "22391": {
        "area": "日高",
        "id": 22391,
        "type": "四",
        "name": "えりも岬",
        "katakana": "ｴﾘﾓﾐｻｷ",
        "name_info": "えりも岬",
        "address": "幌泉郡えりも町東洋",
        "lat": 41.925,
        "lon": 143.24333333333334,
        "alt": 63,
        "alt_wind": "8.1",
        "alt_temp": "1.5",
        "start": "昭53.12.27",
        "comment1": "−",
        "comment2": "−"
    },
    "23031": {
        "area": "渡島",
        "id": 23031,
        "type": "四",
        "name": "長万部",
        "katakana": "ｵｼｬﾏﾝﾍﾞ",
        "name_info": "長万部",
        "address": "山越郡長万部町字長万部",
        "lat": 42.516666666666666,
        "lon": 140.37333333333333,
        "alt": 6,
        "alt_wind": "10",
        "alt_temp": "1.5",
        "start": "#昭52.10.12",
        "comment1": "23900",
        "comment2": "湿度を除く"
    },
    "23086": {
        "area": "渡島",
        "id": 23086,
        "type": "四",
        "name": "八雲",
        "katakana": "ﾔｸﾓ",
        "name_info": "八雲町八雲",
        "address": "二海郡八雲町本町",
        "lat": 42.251666666666665,
        "lon": 140.27166666666668,
        "alt": 8,
        "alt_wind": "9.9",
        "alt_temp": "1.5",
        "start": "#昭52.10.12",
        "comment1": "23905",
        "comment2": "−"
    },
    "23166": {
        "area": "渡島",
        "id": 23166,
        "type": "四",
        "name": "森",
        "katakana": "ﾓﾘ",
        "name_info": "森",
        "address": "茅部郡森町姫川",
        "lat": 42.06666666666667,
        "lon": 140.58833333333334,
        "alt": 125,
        "alt_wind": "8",
        "alt_temp": "1.5",
        "start": "平14.3.1",
        "comment1": "23925",
        "comment2": "湿度を除く"
    },
    "23191": {
        "area": "渡島",
        "id": 23191,
        "type": "雨",
        "name": "大沼",
        "katakana": "ｵｵﾇﾏ",
        "name_info": "七飯町大沼",
        "address": "亀田郡七飯町上軍川",
        "lat": 41.97666666666667,
        "lon": 140.715,
        "alt": 165,
        "alt_wind": "−",
        "alt_temp": "−",
        "start": "#",
        "comment1": "23910",
        "comment2": "−"
    },
    "23206": {
        "area": "渡島",
        "id": 23206,
        "type": "四",
        "name": "川汲",
        "katakana": "ｶｯｸﾐ",
        "name_info": "函館市川汲",
        "address": "函館市川汲町",
        "lat": 41.905,
        "lon": 140.97,
        "alt": 25,
        "alt_wind": "10.1",
        "alt_temp": "1.5",
        "start": "#昭52.10.13",
        "comment1": "−",
        "comment2": "−"
    },
    "23226": {
        "area": "渡島",
        "id": 23226,
        "type": "四",
        "name": "北斗",
        "katakana": "ﾎｸﾄ",
        "name_info": "北斗",
        "address": "北斗市本町",
        "lat": 41.88666666666667,
        "lon": 140.65333333333334,
        "alt": 25,
        "alt_wind": "10",
        "alt_temp": "1.5",
        "start": "#昭52.10.13",
        "comment1": "−",
        "comment2": "湿度を除く"
    },
    "23232": {
        "area": "渡島",
        "id": 23232,
        "type": "官",
        "name": "函館",
        "katakana": "ﾊｺﾀﾞﾃ",
        "name_info": "函館市美原",
        "address": "函館市美原　函館地方気象台",
        "lat": 41.81666666666667,
        "lon": 140.75333333333333,
        "alt": 35,
        "alt_wind": "25.9",
        "alt_temp": "−",
        "start": "平4.7.23",
        "comment1": "23915",
        "comment2": "−"
    },
    "23281": {
        "area": "渡島",
        "id": 23281,
        "type": "官",
        "name": "高松",
        "katakana": "ﾀｶﾏﾂ",
        "name_info": "函館空港",
        "address": "函館市高松町　函館航空気象観測所",
        "lat": 41.77,
        "lon": 140.82166666666666,
        "alt": 34,
        "alt_wind": "10",
        "alt_temp": "−",
        "start": "平15.1.1",
        "comment1": "23930",
        "comment2": "日照・湿度・気圧を除く"
    },
    "23291": {
        "area": "渡島",
        "id": 23291,
        "type": "雨",
        "name": "戸井泊",
        "katakana": "ﾄｲﾄﾏﾘ",
        "name_info": "函館市戸井泊",
        "address": "函館市泊町",
        "lat": 41.71666666666667,
        "lon": 141.00333333333333,
        "alt": 20,
        "alt_wind": "−",
        "alt_temp": "−",
        "start": "平15.3.20",
        "comment1": "−",
        "comment2": "−"
    },
    "23321": {
        "area": "渡島",
        "id": 23321,
        "type": "雨",
        "name": "知内",
        "katakana": "ｼﾘｳﾁ",
        "name_info": "知内",
        "address": "上磯郡知内町上雷",
        "lat": 41.598333333333336,
        "lon": 140.375,
        "alt": 24,
        "alt_wind": "−",
        "alt_temp": "−",
        "start": "平16.10.1",
        "comment1": "−",
        "comment2": "−"
    },
    "23326": {
        "area": "渡島",
        "id": 23326,
        "type": "四",
        "name": "木古内",
        "katakana": "ｷｺﾅｲ",
        "name_info": "木古内",
        "address": "上磯郡木古内町字本町",
        "lat": 41.68,
        "lon": 140.43666666666667,
        "alt": 10,
        "alt_wind": "9.9",
        "alt_temp": "1.5",
        "start": "(昭50.4.18)昭52.10.14",
        "comment1": "−",
        "comment2": "−"
    },
    "23356": {
        "area": "渡島",
        "id": 23356,
        "type": "雨",
        "name": "千軒",
        "katakana": "ｾﾝｹﾞﾝ",
        "name_info": "福島町千軒",
        "address": "松前郡福島町千軒",
        "lat": 41.55833333333333,
        "lon": 140.27166666666668,
        "alt": 100,
        "alt_wind": "−",
        "alt_temp": "−",
        "start": "昭53.7.19",
        "comment1": "23920",
        "comment2": "−"
    },
    "23376": {
        "area": "渡島",
        "id": 23376,
        "type": "四",
        "name": "松前",
        "katakana": "ﾏﾂﾏｴ",
        "name_info": "松前",
        "address": "松前郡松前町建石",
        "lat": 41.42333333333333,
        "lon": 140.08666666666667,
        "alt": 30,
        "alt_wind": "10.1",
        "alt_temp": "1.5",
        "start": "#昭52.10.14",
        "comment1": "−",
        "comment2": "−"
    },
    "24141": {
        "area": "渡島",
        "id": 24141,
        "type": "四",
        "name": "熊石",
        "katakana": "ｸﾏｲｼ",
        "name_info": "八雲町熊石",
        "address": "二海郡八雲町熊石根崎町",
        "lat": 42.12833333333333,
        "lon": 139.985,
        "alt": 12,
        "alt_wind": "10",
        "alt_temp": "1.5",
        "start": "#昭52.10.18",
        "comment1": "24905",
        "comment2": "湿度を除く"
    },
    "24041": {
        "area": "檜山",
        "id": 24041,
        "type": "四",
        "name": "せたな",
        "katakana": "ｾﾀﾅ",
        "name_info": "せたな町瀬棚",
        "address": "久遠郡せたな町瀬棚区本町",
        "lat": 42.45,
        "lon": 139.85166666666666,
        "alt": 10,
        "alt_wind": "10",
        "alt_temp": "1.5",
        "start": "#昭52.10.19",
        "comment1": "−",
        "comment2": "湿度を除く"
    },
    "24051": {
        "area": "檜山",
        "id": 24051,
        "type": "四",
        "name": "今金",
        "katakana": "ｲﾏｶﾈ",
        "name_info": "今金",
        "address": "瀬棚郡今金町今金",
        "lat": 42.428333333333335,
        "lon": 140.00833333333333,
        "alt": 19,
        "alt_wind": "10",
        "alt_temp": "1.5",
        "start": "#昭52.10.19",
        "comment1": "24900",
        "comment2": "湿度を除く"
    },
    "24101": {
        "area": "檜山",
        "id": 24101,
        "type": "四",
        "name": "奥尻",
        "katakana": "ｵｸｼﾘ",
        "name_info": "奥尻町稲穂",
        "address": "奥尻郡奥尻町稲穂",
        "lat": 42.248333333333335,
        "lon": 139.55666666666667,
        "alt": 5,
        "alt_wind": "9.9",
        "alt_temp": "1.5",
        "start": "平12.1.28",
        "comment1": "−",
        "comment2": "−"
    },
    "24156": {
        "area": "檜山",
        "id": 24156,
        "type": "官",
        "name": "米岡",
        "katakana": "ﾖﾈｵｶ",
        "name_info": "奥尻空港",
        "address": "奥尻郡奥尻町字米岡　奥尻航空気象観測所",
        "lat": 42.071666666666665,
        "lon": 139.43166666666667,
        "alt": 49,
        "alt_wind": "10",
        "alt_temp": "−",
        "start": "平15.1.1",
        "comment1": "−",
        "comment2": "日照・湿度・気圧を除く"
    },
    "24166": {
        "area": "檜山",
        "id": 24166,
        "type": "雨",
        "name": "潮見",
        "katakana": "ｼｵﾐ",
        "name_info": "乙部町潮見",
        "address": "爾志郡乙部町潮見",
        "lat": 42.038333333333334,
        "lon": 140.08833333333334,
        "alt": 50,
        "alt_wind": "−",
        "alt_temp": "−",
        "start": "#",
        "comment1": "−",
        "comment2": "−"
    },
    "24201": {
        "area": "檜山",
        "id": 24201,
        "type": "四",
        "name": "鶉",
        "katakana": "ｳｽﾞﾗ",
        "name_info": "厚沢部町鶉",
        "address": "檜山郡厚沢部町鶉町",
        "lat": 41.93,
        "lon": 140.31166666666667,
        "alt": 53,
        "alt_wind": "10",
        "alt_temp": "1.5",
        "start": "昭52.10.18",
        "comment1": "24910",
        "comment2": "湿度を除く"
    },
    "24217": {
        "area": "檜山",
        "id": 24217,
        "type": "官",
        "name": "江差",
        "katakana": "ｴｻｼ",
        "name_info": "江差",
        "address": "檜山郡江差町姥神町　江差特別地域気象観測所",
        "lat": 41.86666666666667,
        "lon": 140.12333333333333,
        "alt": 4,
        "alt_wind": "19.5",
        "alt_temp": "−",
        "start": "昭54.8.30",
        "comment1": "24915",
        "comment2": "−"
    },
    "24236": {
        "area": "檜山",
        "id": 24236,
        "type": "雨",
        "name": "石崎",
        "katakana": "ｲｼｻﾞｷ",
        "name_info": "上ノ国町石崎",
        "address": "檜山郡上ノ国町石崎",
        "lat": 41.7,
        "lon": 140.02833333333334,
        "alt": 5,
        "alt_wind": "−",
        "alt_temp": "−",
        "start": "昭52.10.20",
        "comment1": "−",
        "comment2": "−"
    },
    "31001": {
        "area": "青森",
        "id": 31001,
        "type": "四",
        "name": "大間",
        "katakana": "ｵｵﾏ",
        "name_info": "大間",
        "address": "下北郡大間町大間字狼丁",
        "lat": 41.526666666666664,
        "lon": 140.91166666666666,
        "alt": 14,
        "alt_wind": "9.9",
        "alt_temp": "2",
        "start": "(昭50.5.24)昭51.11.24",
        "comment1": "31900",
        "comment2": "−"
    },
    "31036": {
        "area": "青森",
        "id": 31036,
        "type": "雨",
        "name": "湯野川",
        "katakana": "ﾕﾉｶﾜ",
        "name_info": "むつ市湯野川",
        "address": "むつ市川内町湯野川",
        "lat": 41.31333333333333,
        "lon": 140.95666666666668,
        "alt": 162,
        "alt_wind": "−",
        "alt_temp": "−",
        "start": "平17.10.21",
        "comment1": "−",
        "comment2": "−"
    },
    "31111": {
        "area": "青森",
        "id": 31111,
        "type": "官",
        "name": "むつ",
        "katakana": "ﾑﾂ",
        "name_info": "むつ",
        "address": "むつ市金曲　むつ特別地域気象観測所",
        "lat": 41.28333333333333,
        "lon": 141.21,
        "alt": 3,
        "alt_wind": "11.1",
        "alt_temp": "−",
        "start": "#昭50.12.10",
        "comment1": "31903",
        "comment2": "−"
    },
    "31121": {
        "area": "青森",
        "id": 31121,
        "type": "四",
        "name": "小田野沢",
        "katakana": "ｵﾀﾞﾉｻﾜ",
        "name_info": "東通村小田野沢",
        "address": "下北郡東通村小田野沢字中川目",
        "lat": 41.235,
        "lon": 141.39666666666668,
        "alt": 6,
        "alt_wind": "10",
        "alt_temp": "1.5",
        "start": "昭51.11.22",
        "comment1": "−",
        "comment2": "湿度を除く"
    },
    "31136": {
        "area": "青森",
        "id": 31136,
        "type": "四",
        "name": "今別",
        "katakana": "ｲﾏﾍﾞﾂ",
        "name_info": "今別",
        "address": "東津軽郡今別町今別字中沢",
        "lat": 41.18,
        "lon": 140.48166666666665,
        "alt": 30,
        "alt_wind": "10",
        "alt_temp": "1.5",
        "start": "(昭50.5.21)昭51.11.16",
        "comment1": "31905",
        "comment2": "湿度を除く"
    },
    "31156": {
        "area": "青森",
        "id": 31156,
        "type": "四",
        "name": "脇野沢",
        "katakana": "ﾜｷﾉｻﾜ",
        "name_info": "むつ市脇野沢",
        "address": "むつ市脇野沢桂沢",
        "lat": 41.145,
        "lon": 140.82166666666666,
        "alt": 15,
        "alt_wind": "10",
        "alt_temp": "1.5",
        "start": "昭51.11.25",
        "comment1": "31940",
        "comment2": "湿度を除く"
    },
    "31186": {
        "area": "青森",
        "id": 31186,
        "type": "四",
        "name": "市浦",
        "katakana": "ｼｳﾗ",
        "name_info": "五所川原市市浦",
        "address": "五所川原市相内",
        "lat": 41.056666666666665,
        "lon": 140.34666666666666,
        "alt": 20,
        "alt_wind": "9.9",
        "alt_temp": "2.1",
        "start": "昭51.11.18",
        "comment1": "−",
        "comment2": "−"
    },
    "31201": {
        "area": "青森",
        "id": 31201,
        "type": "四",
        "name": "蟹田",
        "katakana": "ｶﾆﾀ",
        "name_info": "外ヶ浜町蟹田",
        "address": "東津軽郡外ヶ浜町字蟹田鰐ケ淵",
        "lat": 41.045,
        "lon": 140.63333333333333,
        "alt": 5,
        "alt_wind": "8.2",
        "alt_temp": "1.5",
        "start": "#昭51.11.17",
        "comment1": "−",
        "comment2": "湿度を除く"
    },
    "31296": {
        "area": "青森",
        "id": 31296,
        "type": "四",
        "name": "五所川原",
        "katakana": "ｺﾞｼｮｶﾞﾜﾗ",
        "name_info": "五所川原",
        "address": "五所川原市松島町",
        "lat": 40.80833333333333,
        "lon": 140.45833333333334,
        "alt": 9,
        "alt_wind": "9.9",
        "alt_temp": "2",
        "start": "#昭51.11.19",
        "comment1": "31910",
        "comment2": "−"
    },
    "31312": {
        "area": "青森",
        "id": 31312,
        "type": "官",
        "name": "青森",
        "katakana": "ｱｵﾓﾘ",
        "name_info": "青森",
        "address": "青森市花園　青森地方気象台",
        "lat": 40.821666666666665,
        "lon": 140.76833333333335,
        "alt": 3,
        "alt_wind": "31.8",
        "alt_temp": "−",
        "start": "平元.12.1",
        "comment1": "31913",
        "comment2": "−"
    },
    "31321": {
        "area": "青森",
        "id": 31321,
        "type": "雨",
        "name": "大和山",
        "katakana": "ﾔﾏﾄﾔﾏ",
        "name_info": "平内町大和山",
        "address": "東津軽郡平内町外童子字滝ノ沢",
        "lat": 40.848333333333336,
        "lon": 140.985,
        "alt": 137,
        "alt_wind": "−",
        "alt_temp": "−",
        "start": "昭50.5.24",
        "comment1": "−",
        "comment2": "−"
    },
    "31332": {
        "area": "青森",
        "id": 31332,
        "type": "四",
        "name": "野辺地",
        "katakana": "ﾉﾍｼﾞ",
        "name_info": "野辺地",
        "address": "上北郡野辺地町有戸鳥井平",
        "lat": 40.885,
        "lon": 141.16,
        "alt": 14,
        "alt_wind": "10",
        "alt_temp": "2",
        "start": "平20.11.21",
        "comment1": "31916",
        "comment2": "湿度を除く"
    },
    "31336": {
        "area": "青森",
        "id": 31336,
        "type": "四",
        "name": "六ケ所",
        "katakana": "ﾛｯｶｼｮ",
        "name_info": "六ケ所",
        "address": "上北郡六ヶ所村倉内字笹崎",
        "lat": 40.885,
        "lon": 141.27166666666668,
        "alt": 80,
        "alt_wind": "8.2",
        "alt_temp": "2",
        "start": "昭57.9.22",
        "comment1": "−",
        "comment2": "−"
    },